time,header,orientation,orientation_covariance,angular_velocity,angular_velocity_covariance,linear_acceleration,linear_acceleration_covariance
2023/06/17 11:19:24.42999193,"{'stamp': {'secs': 1687011564, 'nsecs': 35253023}, 'frame_id': 'imu_link'}","{'x': 0.020192153751850128, 'y': -0.01492859423160553, 'z': -0.5146456956863403, 'w': 0.8570301532745361}","[0.0, 0.0, 0.0, 0.0, 0.0, 0.0, 0.0, 0.0, 0.0]","{'x': 0.0, 'y': 0.0, 'z': 0.0}","[0.0, 0.0, 0.0, 0.0, 0.0, 0.0, 0.0, 0.0, 0.0]","{'x': 0.055665187537670135, 'y': 0.5530605912208557, 'z': 11.019312858581543}","[0.0, 0.0, 0.0, 0.0, 0.0, 0.0, 0.0, 0.0, 0.0]"
2023/06/17 11:19:24.88494613,"{'stamp': {'secs': 1687011564, 'nsecs': 85157691}, 'frame_id': 'imu_link'}","{'x': 0.019895924255251884, 'y': -0.014540933072566986, 'z': -0.5146552324295044, 'w': 0.8570378422737122}","[0.0, 0.0, 0.0, 0.0, 0.0, 0.0, 0.0, 0.0, 0.0]","{'x': 0.0, 'y': 0.0, 'z': 0.0}","[0.0, 0.0, 0.0, 0.0, 0.0, 0.0, 0.0, 0.0, 0.0]","{'x': 0.053270988166332245, 'y': 0.536899745464325, 'z': 11.052831649780273}","[0.0, 0.0, 0.0, 0.0, 0.0, 0.0, 0.0, 0.0, 0.0]"
2023/06/17 11:19:24.148745198,"{'stamp': {'secs': 1687011564, 'nsecs': 135145222}, 'frame_id': 'imu_link'}","{'x': 0.018617548048496246, 'y': -0.014531305991113186, 'z': -0.5146517753601074, 'w': 0.8570688962936401}","[0.0, 0.0, 0.0, 0.0, 0.0, 0.0, 0.0, 0.0, 0.0]","{'x': 0.0, 'y': 0.0, 'z': 0.0}","[0.0, 0.0, 0.0, 0.0, 0.0, 0.0, 0.0, 0.0, 0.0]","{'x': 0.07661445438861847, 'y': 0.518943190574646, 'z': 11.01392650604248}","[0.0, 0.0, 0.0, 0.0, 0.0, 0.0, 0.0, 0.0, 0.0]"
2023/06/17 11:19:24.189297630,"{'stamp': {'secs': 1687011564, 'nsecs': 185076869}, 'frame_id': 'imu_link'}","{'x': 0.019849654287099838, 'y': -0.015796368941664696, 'z': -0.5146263241767883, 'w': 0.8570340871810913}","[0.0, 0.0, 0.0, 0.0, 0.0, 0.0, 0.0, 0.0, 0.0]","{'x': 0.0, 'y': 0.0, 'z': 0.0}","[0.0, 0.0, 0.0, 0.0, 0.0, 0.0, 0.0, 0.0, 0.0]","{'x': 0.07362169772386551, 'y': 0.5542576909065247, 'z': 11.034276962280273}","[0.0, 0.0, 0.0, 0.0, 0.0, 0.0, 0.0, 0.0, 0.0]"
2023/06/17 11:19:24.239780466,"{'stamp': {'secs': 1687011564, 'nsecs': 235094191}, 'frame_id': 'imu_link'}","{'x': 0.020117666572332382, 'y': -0.014882141724228859, 'z': -0.5146490931510925, 'w': 0.8570306897163391}","[0.0, 0.0, 0.0, 0.0, 0.0, 0.0, 0.0, 0.0, 0.0]","{'x': 0.0, 'y': 0.0, 'z': 0.0}","[0.0, 0.0, 0.0, 0.0, 0.0, 0.0, 0.0, 0.0, 0.0]","{'x': 0.06763619929552078, 'y': 0.5434837937355042, 'z': 11.02051067352295}","[0.0, 0.0, 0.0, 0.0, 0.0, 0.0, 0.0, 0.0, 0.0]"
2023/06/17 11:19:24.298314569,"{'stamp': {'secs': 1687011564, 'nsecs': 285108649}, 'frame_id': 'imu_link'}","{'x': 0.019885748624801636, 'y': -0.015451965853571892, 'z': -0.5146359801292419, 'w': 0.8570338487625122}","[0.0, 0.0, 0.0, 0.0, 0.0, 0.0, 0.0, 0.0, 0.0]","{'x': 0.0, 'y': 0.0, 'z': 0.0}","[0.0, 0.0, 0.0, 0.0, 0.0, 0.0, 0.0, 0.0, 0.0]","{'x': 0.05686229094862938, 'y': 0.5464765429496765, 'z': 11.03248119354248}","[0.0, 0.0, 0.0, 0.0, 0.0, 0.0, 0.0, 0.0, 0.0]"
2023/06/17 11:19:24.338725910,"{'stamp': {'secs': 1687011564, 'nsecs': 335126597}, 'frame_id': 'imu_link'}","{'x': 0.020038962364196777, 'y': -0.014517308212816715, 'z': -0.5146583318710327, 'w': 0.8570331931114197}","[0.0, 0.0, 0.0, 0.0, 0.0, 0.0, 0.0, 0.0, 0.0]","{'x': 0.0, 'y': 0.0, 'z': 0.0}","[0.0, 0.0, 0.0, 0.0, 0.0, 0.0, 0.0, 0.0, 0.0]","{'x': 0.05147533491253853, 'y': 0.5398924946784973, 'z': 11.004947662353516}","[0.0, 0.0, 0.0, 0.0, 0.0, 0.0, 0.0, 0.0, 0.0]"
2023/06/17 11:19:24.389318691,"{'stamp': {'secs': 1687011564, 'nsecs': 385168866}, 'frame_id': 'imu_link'}","{'x': 0.0194985494017601, 'y': -0.016249047592282295, 'z': -0.5146141052246094, 'w': 0.8570411205291748}","[0.0, 0.0, 0.0, 0.0, 0.0, 0.0, 0.0, 0.0, 0.0]","{'x': 0.0, 'y': 0.0, 'z': 0.0}","[0.0, 0.0, 0.0, 0.0, 0.0, 0.0, 0.0, 0.0, 0.0]","{'x': 0.0802057534456253, 'y': 0.5536591410636902, 'z': 11.033080101013184}","[0.0, 0.0, 0.0, 0.0, 0.0, 0.0, 0.0, 0.0, 0.0]"
2023/06/17 11:19:24.444560195,"{'stamp': {'secs': 1687011564, 'nsecs': 435090565}, 'frame_id': 'imu_link'}","{'x': 0.01998642273247242, 'y': -0.014329207129776478, 'z': -0.5146621465682983, 'w': 0.8570353388786316}","[0.0, 0.0, 0.0, 0.0, 0.0, 0.0, 0.0, 0.0, 0.0]","{'x': 0.0, 'y': 0.0, 'z': 0.0}","[0.0, 0.0, 0.0, 0.0, 0.0, 0.0, 0.0, 0.0, 0.0]","{'x': 0.0454898327589035, 'y': 0.547075092792511, 'z': 11.040861129760742}","[0.0, 0.0, 0.0, 0.0, 0.0, 0.0, 0.0, 0.0, 0.0]"
2023/06/17 11:19:24.489232661,"{'stamp': {'secs': 1687011564, 'nsecs': 485113929}, 'frame_id': 'imu_link'}","{'x': 0.019547684118151665, 'y': -0.014489364810287952, 'z': -0.5146573781967163, 'w': 0.8570456504821777}","[0.0, 0.0, 0.0, 0.0, 0.0, 0.0, 0.0, 0.0, 0.0]","{'x': 0.0, 'y': 0.0, 'z': 0.0}","[0.0, 0.0, 0.0, 0.0, 0.0, 0.0, 0.0, 0.0, 0.0]","{'x': 0.055665187537670135, 'y': 0.5398924946784973, 'z': 11.028889656066895}","[0.0, 0.0, 0.0, 0.0, 0.0, 0.0, 0.0, 0.0, 0.0]"
2023/06/17 11:19:24.540500639,"{'stamp': {'secs': 1687011564, 'nsecs': 535101356}, 'frame_id': 'imu_link'}","{'x': 0.019098328426480293, 'y': -0.01566685549914837, 'z': -0.51462721824646, 'w': 0.8570530414581299}","[0.0, 0.0, 0.0, 0.0, 0.0, 0.0, 0.0, 0.0, 0.0]","{'x': 0.0, 'y': 0.0, 'z': 0.0}","[0.0, 0.0, 0.0, 0.0, 0.0, 0.0, 0.0, 0.0, 0.0]","{'x': 0.06823474913835526, 'y': 0.5422866940498352, 'z': 11.007342338562012}","[0.0, 0.0, 0.0, 0.0, 0.0, 0.0, 0.0, 0.0, 0.0]"
2023/06/17 11:19:24.593794416,"{'stamp': {'secs': 1687011564, 'nsecs': 585070659}, 'frame_id': 'imu_link'}","{'x': 0.019704490900039673, 'y': -0.015348290093243122, 'z': -0.5146381855010986, 'w': 0.857038676738739}","[0.0, 0.0, 0.0, 0.0, 0.0, 0.0, 0.0, 0.0, 0.0]","{'x': 0.0, 'y': 0.0, 'z': 0.0}","[0.0, 0.0, 0.0, 0.0, 0.0, 0.0, 0.0, 0.0, 0.0]","{'x': 0.03232172131538391, 'y': 0.5446808934211731, 'z': 11.028291702270508}","[0.0, 0.0, 0.0, 0.0, 0.0, 0.0, 0.0, 0.0, 0.0]"
2023/06/17 11:19:24.638110065,"{'stamp': {'secs': 1687011564, 'nsecs': 635136834}, 'frame_id': 'imu_link'}","{'x': 0.019421061500906944, 'y': -0.015252637676894665, 'z': -0.5146390199661255, 'w': 0.8570461869239807}","[0.0, 0.0, 0.0, 0.0, 0.0, 0.0, 0.0, 0.0, 0.0]","{'x': 0.0, 'y': 0.0, 'z': 0.0}","[0.0, 0.0, 0.0, 0.0, 0.0, 0.0, 0.0, 0.0, 0.0]","{'x': 0.0694318488240242, 'y': 0.5386953949928284, 'z': 11.004947662353516}","[0.0, 0.0, 0.0, 0.0, 0.0, 0.0, 0.0, 0.0, 0.0]"
2023/06/17 11:19:24.698480596,"{'stamp': {'secs': 1687011564, 'nsecs': 685069262}, 'frame_id': 'imu_link'}","{'x': 0.019603626802563667, 'y': -0.016029227524995804, 'z': -0.5146206617355347, 'w': 0.8570388555526733}","[0.0, 0.0, 0.0, 0.0, 0.0, 0.0, 0.0, 0.0, 0.0]","{'x': 0.0, 'y': 0.0, 'z': 0.0}","[0.0, 0.0, 0.0, 0.0, 0.0, 0.0, 0.0, 0.0, 0.0]","{'x': 0.06763619929552078, 'y': 0.5261257886886597, 'z': 11.01751708984375}","[0.0, 0.0, 0.0, 0.0, 0.0, 0.0, 0.0, 0.0, 0.0]"
2023/06/17 11:19:24.741372884,"{'stamp': {'secs': 1687011564, 'nsecs': 735100022}, 'frame_id': 'imu_link'}","{'x': 0.020131003111600876, 'y': -0.015607255510985851, 'z': -0.5146327018737793, 'w': 0.8570272922515869}","[0.0, 0.0, 0.0, 0.0, 0.0, 0.0, 0.0, 0.0, 0.0]","{'x': 0.0, 'y': 0.0, 'z': 0.0}","[0.0, 0.0, 0.0, 0.0, 0.0, 0.0, 0.0, 0.0, 0.0]","{'x': 0.08499415963888168, 'y': 0.5380968451499939, 'z': 11.000758171081543}","[0.0, 0.0, 0.0, 0.0, 0.0, 0.0, 0.0, 0.0, 0.0]"
2023/06/17 11:19:24.788411819,"{'stamp': {'secs': 1687011564, 'nsecs': 785078439}, 'frame_id': 'imu_link'}","{'x': 0.019503651186823845, 'y': -0.015222873538732529, 'z': -0.5146410465240479, 'w': 0.8570437431335449}","[0.0, 0.0, 0.0, 0.0, 0.0, 0.0, 0.0, 0.0, 0.0]","{'x': 0.0, 'y': 0.0, 'z': 0.0}","[0.0, 0.0, 0.0, 0.0, 0.0, 0.0, 0.0, 0.0, 0.0]","{'x': 0.06404489278793335, 'y': 0.5488707423210144, 'z': 11.021108627319336}","[0.0, 0.0, 0.0, 0.0, 0.0, 0.0, 0.0, 0.0, 0.0]"
2023/06/17 11:19:24.848832089,"{'stamp': {'secs': 1687011564, 'nsecs': 835076386}, 'frame_id': 'imu_link'}","{'x': 0.01999666541814804, 'y': -0.015349800698459148, 'z': -0.5146384835243225, 'w': 0.857031524181366}","[0.0, 0.0, 0.0, 0.0, 0.0, 0.0, 0.0, 0.0, 0.0]","{'x': 0.0, 'y': 0.0, 'z': 0.0}","[0.0, 0.0, 0.0, 0.0, 0.0, 0.0, 0.0, 0.0, 0.0]","{'x': 0.07960720360279083, 'y': 0.536899745464325, 'z': 11.046247482299805}","[0.0, 0.0, 0.0, 0.0, 0.0, 0.0, 0.0, 0.0, 0.0]"
2023/06/17 11:19:24.889577382,"{'stamp': {'secs': 1687011564, 'nsecs': 885085480}, 'frame_id': 'imu_link'}","{'x': 0.019780922681093216, 'y': -0.014724994078278542, 'z': -0.5146535038948059, 'w': 0.8570384979248047}","[0.0, 0.0, 0.0, 0.0, 0.0, 0.0, 0.0, 0.0, 0.0]","{'x': 0.0, 'y': 0.0, 'z': 0.0}","[0.0, 0.0, 0.0, 0.0, 0.0, 0.0, 0.0, 0.0, 0.0]","{'x': 0.055665187537670135, 'y': 0.5404910445213318, 'z': 11.025897026062012}","[0.0, 0.0, 0.0, 0.0, 0.0, 0.0, 0.0, 0.0, 0.0]"
2023/06/17 11:19:24.940108029,"{'stamp': {'secs': 1687011564, 'nsecs': 935113583}, 'frame_id': 'imu_link'}","{'x': 0.01903214119374752, 'y': -0.014695573598146439, 'z': -0.5146522521972656, 'w': 0.857056736946106}","[0.0, 0.0, 0.0, 0.0, 0.0, 0.0, 0.0, 0.0, 0.0]","{'x': 0.0, 'y': 0.0, 'z': 0.0}","[0.0, 0.0, 0.0, 0.0, 0.0, 0.0, 0.0, 0.0, 0.0]","{'x': 0.08319851011037827, 'y': 0.5123591423034668, 'z': 10.976816177368164}","[0.0, 0.0, 0.0, 0.0, 0.0, 0.0, 0.0, 0.0, 0.0]"
2023/06/17 11:19:24.993225819,"{'stamp': {'secs': 1687011564, 'nsecs': 985064240}, 'frame_id': 'imu_link'}","{'x': 0.01937183551490307, 'y': -0.01519928127527237, 'z': -0.5146409869194031, 'w': 0.8570470213890076}","[0.0, 0.0, 0.0, 0.0, 0.0, 0.0, 0.0, 0.0, 0.0]","{'x': 0.0, 'y': 0.0, 'z': 0.0}","[0.0, 0.0, 0.0, 0.0, 0.0, 0.0, 0.0, 0.0, 0.0]","{'x': 0.06823474913835526, 'y': 0.5530605912208557, 'z': 11.048043251037598}","[0.0, 0.0, 0.0, 0.0, 0.0, 0.0, 0.0, 0.0, 0.0]"
2023/06/17 11:19:25.38563278,"{'stamp': {'secs': 1687011565, 'nsecs': 35117763}, 'frame_id': 'imu_link'}","{'x': 0.018898380920290947, 'y': -0.014733534306287766, 'z': -0.5146514177322388, 'w': 0.8570595383644104}","[0.0, 0.0, 0.0, 0.0, 0.0, 0.0, 0.0, 0.0, 0.0]","{'x': 0.0, 'y': 0.0, 'z': 0.0}","[0.0, 0.0, 0.0, 0.0, 0.0, 0.0, 0.0, 0.0, 0.0]","{'x': 0.06703764945268631, 'y': 0.5225344896316528, 'z': 11.023503303527832}","[0.0, 0.0, 0.0, 0.0, 0.0, 0.0, 0.0, 0.0, 0.0]"
2023/06/17 11:19:25.88993672,"{'stamp': {'secs': 1687011565, 'nsecs': 85053113}, 'frame_id': 'imu_link'}","{'x': 0.01887107640504837, 'y': -0.014844649471342564, 'z': -0.5146484971046448, 'w': 0.8570600748062134}","[0.0, 0.0, 0.0, 0.0, 0.0, 0.0, 0.0, 0.0, 0.0]","{'x': 0.0, 'y': 0.0, 'z': 0.0}","[0.0, 0.0, 0.0, 0.0, 0.0, 0.0, 0.0, 0.0, 0.0]","{'x': 0.03770867735147476, 'y': 0.5506663918495178, 'z': 11.035473823547363}","[0.0, 0.0, 0.0, 0.0, 0.0, 0.0, 0.0, 0.0, 0.0]"
2023/06/17 11:19:25.140744876,"{'stamp': {'secs': 1687011565, 'nsecs': 135143826}, 'frame_id': 'imu_link'}","{'x': 0.01948491856455803, 'y': -0.01525688637048006, 'z': -0.5146399736404419, 'w': 0.8570441007614136}","[0.0, 0.0, 0.0, 0.0, 0.0, 0.0, 0.0, 0.0, 0.0]","{'x': 0.0, 'y': 0.0, 'z': 0.0}","[0.0, 0.0, 0.0, 0.0, 0.0, 0.0, 0.0, 0.0, 0.0]","{'x': 0.07721300423145294, 'y': 0.529118537902832, 'z': 11.010334968566895}","[0.0, 0.0, 0.0, 0.0, 0.0, 0.0, 0.0, 0.0, 0.0]"
2023/06/17 11:19:25.188865153,"{'stamp': {'secs': 1687011565, 'nsecs': 185049229}, 'frame_id': 'imu_link'}","{'x': 0.019389448687434196, 'y': -0.014487096108496189, 'z': -0.5146588087081909, 'w': 0.857048511505127}","[0.0, 0.0, 0.0, 0.0, 0.0, 0.0, 0.0, 0.0, 0.0]","{'x': 0.0, 'y': 0.0, 'z': 0.0}","[0.0, 0.0, 0.0, 0.0, 0.0, 0.0, 0.0, 0.0, 0.0]","{'x': 0.053270988166332245, 'y': 0.5339069962501526, 'z': 11.045649528503418}","[0.0, 0.0, 0.0, 0.0, 0.0, 0.0, 0.0, 0.0, 0.0]"
2023/06/17 11:19:25.246629433,"{'stamp': {'secs': 1687011565, 'nsecs': 235093223}, 'frame_id': 'imu_link'}","{'x': 0.020128844305872917, 'y': -0.015194905921816826, 'z': -0.5146428346633911, 'w': 0.857028603553772}","[0.0, 0.0, 0.0, 0.0, 0.0, 0.0, 0.0, 0.0, 0.0]","{'x': 0.0, 'y': 0.0, 'z': 0.0}","[0.0, 0.0, 0.0, 0.0, 0.0, 0.0, 0.0, 0.0, 0.0]","{'x': 0.06823474913835526, 'y': 0.5524620413780212, 'z': 11.035473823547363}","[0.0, 0.0, 0.0, 0.0, 0.0, 0.0, 0.0, 0.0, 0.0]"
2023/06/17 11:19:25.289881720,"{'stamp': {'secs': 1687011565, 'nsecs': 285080395}, 'frame_id': 'imu_link'}","{'x': 0.019495327025651932, 'y': -0.013738761655986309, 'z': -0.5146761536598206, 'w': 0.8570478558540344}","[0.0, 0.0, 0.0, 0.0, 0.0, 0.0, 0.0, 0.0, 0.0]","{'x': 0.0, 'y': 0.0, 'z': 0.0}","[0.0, 0.0, 0.0, 0.0, 0.0, 0.0, 0.0, 0.0, 0.0]","{'x': 0.03890577703714371, 'y': 0.5261257886886597, 'z': 11.033080101013184}","[0.0, 0.0, 0.0, 0.0, 0.0, 0.0, 0.0, 0.0, 0.0]"
2023/06/17 11:19:25.341649018,"{'stamp': {'secs': 1687011565, 'nsecs': 335075640}, 'frame_id': 'imu_link'}","{'x': 0.020265163853764534, 'y': -0.015071547590196133, 'z': -0.5146453380584717, 'w': 0.8570260405540466}","[0.0, 0.0, 0.0, 0.0, 0.0, 0.0, 0.0, 0.0, 0.0]","{'x': 0.0, 'y': 0.0, 'z': 0.0}","[0.0, 0.0, 0.0, 0.0, 0.0, 0.0, 0.0, 0.0, 0.0]","{'x': 0.07481880486011505, 'y': 0.5482721924781799, 'z': 11.033080101013184}","[0.0, 0.0, 0.0, 0.0, 0.0, 0.0, 0.0, 0.0, 0.0]"
2023/06/17 11:19:25.397211044,"{'stamp': {'secs': 1687011565, 'nsecs': 385146092}, 'frame_id': 'imu_link'}","{'x': 0.01976749673485756, 'y': -0.015335435047745705, 'z': -0.5146373510360718, 'w': 0.8570377826690674}","[0.0, 0.0, 0.0, 0.0, 0.0, 0.0, 0.0, 0.0, 0.0]","{'x': 0.0, 'y': 0.0, 'z': 0.0}","[0.0, 0.0, 0.0, 0.0, 0.0, 0.0, 0.0, 0.0, 0.0]","{'x': 0.04489128291606903, 'y': 0.5518634915351868, 'z': 11.037269592285156}","[0.0, 0.0, 0.0, 0.0, 0.0, 0.0, 0.0, 0.0, 0.0]"
2023/06/17 11:19:25.440243803,"{'stamp': {'secs': 1687011565, 'nsecs': 435101182}, 'frame_id': 'imu_link'}","{'x': 0.019319310784339905, 'y': -0.015166680328547955, 'z': -0.5146395564079285, 'w': 0.8570497035980225}","[0.0, 0.0, 0.0, 0.0, 0.0, 0.0, 0.0, 0.0, 0.0]","{'x': 0.0, 'y': 0.0, 'z': 0.0}","[0.0, 0.0, 0.0, 0.0, 0.0, 0.0, 0.0, 0.0, 0.0]","{'x': 0.060453593730926514, 'y': 0.5279214382171631, 'z': 11.022305488586426}","[0.0, 0.0, 0.0, 0.0, 0.0, 0.0, 0.0, 0.0, 0.0]"
2023/06/17 11:19:25.488282415,"{'stamp': {'secs': 1687011565, 'nsecs': 485257674}, 'frame_id': 'imu_link'}","{'x': 0.019557587802410126, 'y': -0.015365172177553177, 'z': -0.5146347880363464, 'w': 0.8570435643196106}","[0.0, 0.0, 0.0, 0.0, 0.0, 0.0, 0.0, 0.0, 0.0]","{'x': 0.0, 'y': 0.0, 'z': 0.0}","[0.0, 0.0, 0.0, 0.0, 0.0, 0.0, 0.0, 0.0, 0.0]","{'x': 0.06823474913835526, 'y': 0.545877993106842, 'z': 11.036670684814453}","[0.0, 0.0, 0.0, 0.0, 0.0, 0.0, 0.0, 0.0, 0.0]"
2023/06/17 11:19:25.542601753,"{'stamp': {'secs': 1687011565, 'nsecs': 535120995}, 'frame_id': 'imu_link'}","{'x': 0.019158532842993736, 'y': -0.015637246891856194, 'z': -0.5146287679672241, 'w': 0.8570513129234314}","[0.0, 0.0, 0.0, 0.0, 0.0, 0.0, 0.0, 0.0, 0.0]","{'x': 0.0, 'y': 0.0, 'z': 0.0}","[0.0, 0.0, 0.0, 0.0, 0.0, 0.0, 0.0, 0.0, 0.0]","{'x': 0.08080430328845978, 'y': 0.5434837937355042, 'z': 11.034875869750977}","[0.0, 0.0, 0.0, 0.0, 0.0, 0.0, 0.0, 0.0, 0.0]"
2023/06/17 11:19:25.589290596,"{'stamp': {'secs': 1687011565, 'nsecs': 585088480}, 'frame_id': 'imu_link'}","{'x': 0.019629664719104767, 'y': -0.015972379595041275, 'z': -0.5146229863166809, 'w': 0.8570379614830017}","[0.0, 0.0, 0.0, 0.0, 0.0, 0.0, 0.0, 0.0, 0.0]","{'x': 0.0, 'y': 0.0, 'z': 0.0}","[0.0, 0.0, 0.0, 0.0, 0.0, 0.0, 0.0, 0.0, 0.0]","{'x': 0.0802057534456253, 'y': 0.5500678420066833, 'z': 10.988786697387695}","[0.0, 0.0, 0.0, 0.0, 0.0, 0.0, 0.0, 0.0, 0.0]"
2023/06/17 11:19:25.648409593,"{'stamp': {'secs': 1687011565, 'nsecs': 635115079}, 'frame_id': 'imu_link'}","{'x': 0.018977129831910133, 'y': -0.015146263875067234, 'z': -0.5146413445472717, 'w': 0.8570565581321716}","[0.0, 0.0, 0.0, 0.0, 0.0, 0.0, 0.0, 0.0, 0.0]","{'x': 0.0, 'y': 0.0, 'z': 0.0}","[0.0, 0.0, 0.0, 0.0, 0.0, 0.0, 0.0, 0.0, 0.0]","{'x': 0.07003039866685867, 'y': 0.5309142470359802, 'z': 11.040861129760742}","[0.0, 0.0, 0.0, 0.0, 0.0, 0.0, 0.0, 0.0, 0.0]"
2023/06/17 11:19:25.694053974,"{'stamp': {'secs': 1687011565, 'nsecs': 690607730}, 'frame_id': 'imu_link'}","{'x': 0.019297316670417786, 'y': -0.014994965866208076, 'z': -0.5146472454071045, 'w': 0.8570486307144165}","[0.0, 0.0, 0.0, 0.0, 0.0, 0.0, 0.0, 0.0, 0.0]","{'x': 0.0, 'y': 0.0, 'z': 0.0}","[0.0, 0.0, 0.0, 0.0, 0.0, 0.0, 0.0, 0.0, 0.0]","{'x': 0.07781155407428741, 'y': 0.535702645778656, 'z': 11.025897026062012}","[0.0, 0.0, 0.0, 0.0, 0.0, 0.0, 0.0, 0.0, 0.0]"
2023/06/17 11:19:25.739453308,"{'stamp': {'secs': 1687011565, 'nsecs': 735053122}, 'frame_id': 'imu_link'}","{'x': 0.01985083892941475, 'y': -0.015494009479880333, 'z': -0.5146356225013733, 'w': 0.8570341467857361}","[0.0, 0.0, 0.0, 0.0, 0.0, 0.0, 0.0, 0.0, 0.0]","{'x': 0.0, 'y': 0.0, 'z': 0.0}","[0.0, 0.0, 0.0, 0.0, 0.0, 0.0, 0.0, 0.0, 0.0]","{'x': 0.061052143573760986, 'y': 0.5404910445213318, 'z': 11.031882286071777}","[0.0, 0.0, 0.0, 0.0, 0.0, 0.0, 0.0, 0.0, 0.0]"
2023/06/17 11:19:25.798724645,"{'stamp': {'secs': 1687011565, 'nsecs': 785087116}, 'frame_id': 'imu_link'}","{'x': 0.018870225176215172, 'y': -0.015218861401081085, 'z': -0.5146390199661255, 'w': 0.8570592403411865}","[0.0, 0.0, 0.0, 0.0, 0.0, 0.0, 0.0, 0.0, 0.0]","{'x': 0.0, 'y': 0.0, 'z': 0.0}","[0.0, 0.0, 0.0, 0.0, 0.0, 0.0, 0.0, 0.0, 0.0]","{'x': 0.07362169772386551, 'y': 0.5105634927749634, 'z': 11.013327598571777}","[0.0, 0.0, 0.0, 0.0, 0.0, 0.0, 0.0, 0.0, 0.0]"
2023/06/17 11:19:25.841873080,"{'stamp': {'secs': 1687011565, 'nsecs': 835062935}, 'frame_id': 'imu_link'}","{'x': 0.019551478326320648, 'y': -0.015088772401213646, 'z': -0.5146430134773254, 'w': 0.8570438623428345}","[0.0, 0.0, 0.0, 0.0, 0.0, 0.0, 0.0, 0.0, 0.0]","{'x': 0.0, 'y': 0.0, 'z': 0.0}","[0.0, 0.0, 0.0, 0.0, 0.0, 0.0, 0.0, 0.0, 0.0]","{'x': 0.06344634294509888, 'y': 0.5422866940498352, 'z': 11.043853759765625}","[0.0, 0.0, 0.0, 0.0, 0.0, 0.0, 0.0, 0.0, 0.0]"
2023/06/17 11:19:25.890039397,"{'stamp': {'secs': 1687011565, 'nsecs': 885033545}, 'frame_id': 'imu_link'}","{'x': 0.019377045333385468, 'y': -0.014569739811122417, 'z': -0.5146545171737671, 'w': 0.8570499420166016}","[0.0, 0.0, 0.0, 0.0, 0.0, 0.0, 0.0, 0.0, 0.0]","{'x': 0.0, 'y': 0.0, 'z': 0.0}","[0.0, 0.0, 0.0, 0.0, 0.0, 0.0, 0.0, 0.0, 0.0]","{'x': 0.055665187537670135, 'y': 0.5333084464073181, 'z': 11.0486421585083}","[0.0, 0.0, 0.0, 0.0, 0.0, 0.0, 0.0, 0.0, 0.0]"
2023/06/17 11:19:25.937973011,"{'stamp': {'secs': 1687011565, 'nsecs': 935100768}, 'frame_id': 'imu_link'}","{'x': 0.019184831529855728, 'y': -0.014782869257032871, 'z': -0.5146484375, 'w': 0.8570541143417358}","[0.0, 0.0, 0.0, 0.0, 0.0, 0.0, 0.0, 0.0, 0.0]","{'x': 0.0, 'y': 0.0, 'z': 0.0}","[0.0, 0.0, 0.0, 0.0, 0.0, 0.0, 0.0, 0.0, 0.0]","{'x': 0.061052143573760986, 'y': 0.5297170877456665, 'z': 10.992378234863281}","[0.0, 0.0, 0.0, 0.0, 0.0, 0.0, 0.0, 0.0, 0.0]"
2023/06/17 11:19:25.994589133,"{'stamp': {'secs': 1687011565, 'nsecs': 992488283}, 'frame_id': 'imu_link'}","{'x': 0.018252400681376457, 'y': -0.01559978537261486, 'z': -0.5146243572235107, 'w': 0.8570744395256042}","[0.0, 0.0, 0.0, 0.0, 0.0, 0.0, 0.0, 0.0, 0.0]","{'x': 0.0, 'y': 0.0, 'z': 0.0}","[0.0, 0.0, 0.0, 0.0, 0.0, 0.0, 0.0, 0.0, 0.0]","{'x': 0.06344634294509888, 'y': 0.5440823435783386, 'z': 11.045649528503418}","[0.0, 0.0, 0.0, 0.0, 0.0, 0.0, 0.0, 0.0, 0.0]"
2023/06/17 11:19:26.37425493,"{'stamp': {'secs': 1687011566, 'nsecs': 35089855}, 'frame_id': 'imu_link'}","{'x': 0.020444363355636597, 'y': -0.014542930759489536, 'z': -0.5146561861038208, 'w': 0.8570244312286377}","[0.0, 0.0, 0.0, 0.0, 0.0, 0.0, 0.0, 0.0, 0.0]","{'x': 0.0, 'y': 0.0, 'z': 0.0}","[0.0, 0.0, 0.0, 0.0, 0.0, 0.0, 0.0, 0.0, 0.0]","{'x': 0.050876785069704056, 'y': 0.5249286890029907, 'z': 10.998363494873047}","[0.0, 0.0, 0.0, 0.0, 0.0, 0.0, 0.0, 0.0, 0.0]"
2023/06/17 11:19:26.98280977,"{'stamp': {'secs': 1687011566, 'nsecs': 85022295}, 'frame_id': 'imu_link'}","{'x': 0.018547140061855316, 'y': -0.01574181392788887, 'z': -0.5146186947822571, 'w': 0.8570688366889954}","[0.0, 0.0, 0.0, 0.0, 0.0, 0.0, 0.0, 0.0, 0.0]","{'x': 0.0, 'y': 0.0, 'z': 0.0}","[0.0, 0.0, 0.0, 0.0, 0.0, 0.0, 0.0, 0.0, 0.0]","{'x': 0.076015904545784, 'y': 0.5195417404174805, 'z': 11.045050621032715}","[0.0, 0.0, 0.0, 0.0, 0.0, 0.0, 0.0, 0.0, 0.0]"
2023/06/17 11:19:26.138789982,"{'stamp': {'secs': 1687011566, 'nsecs': 135127752}, 'frame_id': 'imu_link'}","{'x': 0.019989551976323128, 'y': -0.015129702165722847, 'z': -0.5146380662918091, 'w': 0.8570358753204346}","[0.0, 0.0, 0.0, 0.0, 0.0, 0.0, 0.0, 0.0, 0.0]","{'x': 0.0, 'y': 0.0, 'z': 0.0}","[0.0, 0.0, 0.0, 0.0, 0.0, 0.0, 0.0, 0.0, 0.0]","{'x': 0.07661445438861847, 'y': 0.5434837937355042, 'z': 11.001357078552246}","[0.0, 0.0, 0.0, 0.0, 0.0, 0.0, 0.0, 0.0, 0.0]"
2023/06/17 11:19:26.188957990,"{'stamp': {'secs': 1687011566, 'nsecs': 185710805}, 'frame_id': 'imu_link'}","{'x': 0.019410554319620132, 'y': -0.01564689166843891, 'z': -0.5146239399909973, 'w': 0.8570483922958374}","[0.0, 0.0, 0.0, 0.0, 0.0, 0.0, 0.0, 0.0, 0.0]","{'x': 0.0, 'y': 0.0, 'z': 0.0}","[0.0, 0.0, 0.0, 0.0, 0.0, 0.0, 0.0, 0.0, 0.0]","{'x': 0.050876785069704056, 'y': 0.5416881442070007, 'z': 11.028291702270508}","[0.0, 0.0, 0.0, 0.0, 0.0, 0.0, 0.0, 0.0, 0.0]"
2023/06/17 11:19:26.244704967,"{'stamp': {'secs': 1687011566, 'nsecs': 235095598}, 'frame_id': 'imu_link'}","{'x': 0.020259518176317215, 'y': -0.014058767817914486, 'z': -0.5146657824516296, 'w': 0.8570312857627869}","[0.0, 0.0, 0.0, 0.0, 0.0, 0.0, 0.0, 0.0, 0.0]","{'x': 0.0, 'y': 0.0, 'z': 0.0}","[0.0, 0.0, 0.0, 0.0, 0.0, 0.0, 0.0, 0.0, 0.0]","{'x': 0.050876785069704056, 'y': 0.5351040959358215, 'z': 10.998363494873047}","[0.0, 0.0, 0.0, 0.0, 0.0, 0.0, 0.0, 0.0, 0.0]"
2023/06/17 11:19:26.291324702,"{'stamp': {'secs': 1687011566, 'nsecs': 287943509}, 'frame_id': 'imu_link'}","{'x': 0.019862718880176544, 'y': -0.014281689189374447, 'z': -0.5146583318710327, 'w': 0.8570412397384644}","[0.0, 0.0, 0.0, 0.0, 0.0, 0.0, 0.0, 0.0, 0.0]","{'x': 0.0, 'y': 0.0, 'z': 0.0}","[0.0, 0.0, 0.0, 0.0, 0.0, 0.0, 0.0, 0.0, 0.0]","{'x': 0.043095629662275314, 'y': 0.5410895943641663, 'z': 11.038466453552246}","[0.0, 0.0, 0.0, 0.0, 0.0, 0.0, 0.0, 0.0, 0.0]"
2023/06/17 11:19:26.349304974,"{'stamp': {'secs': 1687011566, 'nsecs': 335096620}, 'frame_id': 'imu_link'}","{'x': 0.020148320123553276, 'y': -0.014735007658600807, 'z': -0.5146510601043701, 'w': 0.8570312857627869}","[0.0, 0.0, 0.0, 0.0, 0.0, 0.0, 0.0, 0.0, 0.0]","{'x': 0.0, 'y': 0.0, 'z': 0.0}","[0.0, 0.0, 0.0, 0.0, 0.0, 0.0, 0.0, 0.0, 0.0]","{'x': 0.060453593730926514, 'y': 0.5386953949928284, 'z': 11.005546569824219}","[0.0, 0.0, 0.0, 0.0, 0.0, 0.0, 0.0, 0.0, 0.0]"
2023/06/17 11:19:26.392341644,"{'stamp': {'secs': 1687011566, 'nsecs': 385152651}, 'frame_id': 'imu_link'}","{'x': 0.019094495102763176, 'y': -0.01454880926758051, 'z': -0.5146523118019104, 'w': 0.8570578098297119}","[0.0, 0.0, 0.0, 0.0, 0.0, 0.0, 0.0, 0.0, 0.0]","{'x': 0.0, 'y': 0.0, 'z': 0.0}","[0.0, 0.0, 0.0, 0.0, 0.0, 0.0, 0.0, 0.0, 0.0]","{'x': 0.05027823522686958, 'y': 0.5398924946784973, 'z': 11.022904396057129}","[0.0, 0.0, 0.0, 0.0, 0.0, 0.0, 0.0, 0.0, 0.0]"
2023/06/17 11:19:26.439388559,"{'stamp': {'secs': 1687011566, 'nsecs': 435144412}, 'frame_id': 'imu_link'}","{'x': 0.019214138388633728, 'y': -0.0144449882209301, 'z': -0.5146550536155701, 'w': 0.8570553660392761}","[0.0, 0.0, 0.0, 0.0, 0.0, 0.0, 0.0, 0.0, 0.0]","{'x': 0.0, 'y': 0.0, 'z': 0.0}","[0.0, 0.0, 0.0, 0.0, 0.0, 0.0, 0.0, 0.0, 0.0]","{'x': 0.06464344263076782, 'y': 0.5339069962501526, 'z': 11.01632022857666}","[0.0, 0.0, 0.0, 0.0, 0.0, 0.0, 0.0, 0.0, 0.0]"
2023/06/17 11:19:26.497171752,"{'stamp': {'secs': 1687011566, 'nsecs': 485105080}, 'frame_id': 'imu_link'}","{'x': 0.020558888092637062, 'y': -0.015495074912905693, 'z': -0.5146309733390808, 'w': 0.8570201396942139}","[0.0, 0.0, 0.0, 0.0, 0.0, 0.0, 0.0, 0.0, 0.0]","{'x': 0.0, 'y': 0.0, 'z': 0.0}","[0.0, 0.0, 0.0, 0.0, 0.0, 0.0, 0.0, 0.0, 0.0]","{'x': 0.0586579404771328, 'y': 0.5632359385490417, 'z': 11.001357078552246}","[0.0, 0.0, 0.0, 0.0, 0.0, 0.0, 0.0, 0.0, 0.0]"
2023/06/17 11:19:26.540335451,"{'stamp': {'secs': 1687011566, 'nsecs': 535079029}, 'frame_id': 'imu_link'}","{'x': 0.01856568269431591, 'y': -0.015431645326316357, 'z': -0.5146251916885376, 'w': 0.8570703864097595}","[0.0, 0.0, 0.0, 0.0, 0.0, 0.0, 0.0, 0.0, 0.0]","{'x': 0.0, 'y': 0.0, 'z': 0.0}","[0.0, 0.0, 0.0, 0.0, 0.0, 0.0, 0.0, 0.0, 0.0]","{'x': 0.07422025501728058, 'y': 0.5363011956214905, 'z': 11.042057991027832}","[0.0, 0.0, 0.0, 0.0, 0.0, 0.0, 0.0, 0.0, 0.0]"
2023/06/17 11:19:26.589591392,"{'stamp': {'secs': 1687011566, 'nsecs': 585094853}, 'frame_id': 'imu_link'}","{'x': 0.019230162724852562, 'y': -0.014628725126385689, 'z': -0.5146471858024597, 'w': 0.8570565581321716}","[0.0, 0.0, 0.0, 0.0, 0.0, 0.0, 0.0, 0.0, 0.0]","{'x': 0.0, 'y': 0.0, 'z': 0.0}","[0.0, 0.0, 0.0, 0.0, 0.0, 0.0, 0.0, 0.0, 0.0]","{'x': 0.05925649031996727, 'y': 0.5303156971931458, 'z': 11.054627418518066}","[0.0, 0.0, 0.0, 0.0, 0.0, 0.0, 0.0, 0.0, 0.0]"
2023/06/17 11:19:26.642600862,"{'stamp': {'secs': 1687011566, 'nsecs': 635075833}, 'frame_id': 'imu_link'}","{'x': 0.020146304741501808, 'y': -0.01586877927184105, 'z': -0.5146193504333496, 'w': 0.8570300936698914}","[0.0, 0.0, 0.0, 0.0, 0.0, 0.0, 0.0, 0.0, 0.0]","{'x': 0.0, 'y': 0.0, 'z': 0.0}","[0.0, 0.0, 0.0, 0.0, 0.0, 0.0, 0.0, 0.0, 0.0]","{'x': 0.08080430328845978, 'y': 0.5398924946784973, 'z': 11.048043251037598}","[0.0, 0.0, 0.0, 0.0, 0.0, 0.0, 0.0, 0.0, 0.0]"
2023/06/17 11:19:26.687875932,"{'stamp': {'secs': 1687011566, 'nsecs': 685114364}, 'frame_id': 'imu_link'}","{'x': 0.018624845892190933, 'y': -0.014334429055452347, 'z': -0.5146524906158447, 'w': 0.8570716977119446}","[0.0, 0.0, 0.0, 0.0, 0.0, 0.0, 0.0, 0.0, 0.0]","{'x': 0.0, 'y': 0.0, 'z': 0.0}","[0.0, 0.0, 0.0, 0.0, 0.0, 0.0, 0.0, 0.0, 0.0]","{'x': 0.060453593730926514, 'y': 0.5303156971931458, 'z': 11.022904396057129}","[0.0, 0.0, 0.0, 0.0, 0.0, 0.0, 0.0, 0.0, 0.0]"
2023/06/17 11:19:26.748514493,"{'stamp': {'secs': 1687011566, 'nsecs': 735058626}, 'frame_id': 'imu_link'}","{'x': 0.01936234161257744, 'y': -0.014544659294188023, 'z': -0.5146512985229492, 'w': 0.8570525050163269}","[0.0, 0.0, 0.0, 0.0, 0.0, 0.0, 0.0, 0.0, 0.0]","{'x': 0.0, 'y': 0.0, 'z': 0.0}","[0.0, 0.0, 0.0, 0.0, 0.0, 0.0, 0.0, 0.0, 0.0]","{'x': 0.06165069341659546, 'y': 0.5392939448356628, 'z': 11.023503303527832}","[0.0, 0.0, 0.0, 0.0, 0.0, 0.0, 0.0, 0.0, 0.0]"
2023/06/17 11:19:26.791495748,"{'stamp': {'secs': 1687011566, 'nsecs': 785039711}, 'frame_id': 'imu_link'}","{'x': 0.019675329327583313, 'y': -0.015136242844164371, 'z': -0.514636218547821, 'w': 0.8570442199707031}","[0.0, 0.0, 0.0, 0.0, 0.0, 0.0, 0.0, 0.0, 0.0]","{'x': 0.0, 'y': 0.0, 'z': 0.0}","[0.0, 0.0, 0.0, 0.0, 0.0, 0.0, 0.0, 0.0, 0.0]","{'x': 0.06823474913835526, 'y': 0.5410895943641663, 'z': 11.040262222290039}","[0.0, 0.0, 0.0, 0.0, 0.0, 0.0, 0.0, 0.0, 0.0]"
2023/06/17 11:19:26.838456727,"{'stamp': {'secs': 1687011566, 'nsecs': 835087513}, 'frame_id': 'imu_link'}","{'x': 0.020317357033491135, 'y': -0.015668973326683044, 'z': -0.5146251320838928, 'w': 0.8570262789726257}","[0.0, 0.0, 0.0, 0.0, 0.0, 0.0, 0.0, 0.0, 0.0]","{'x': 0.0, 'y': 0.0, 'z': 0.0}","[0.0, 0.0, 0.0, 0.0, 0.0, 0.0, 0.0, 0.0, 0.0]","{'x': 0.060453593730926514, 'y': 0.568622887134552, 'z': 11.019312858581543}","[0.0, 0.0, 0.0, 0.0, 0.0, 0.0, 0.0, 0.0, 0.0]"
2023/06/17 11:19:26.896564080,"{'stamp': {'secs': 1687011566, 'nsecs': 885074639}, 'frame_id': 'imu_link'}","{'x': 0.01933947391808033, 'y': -0.015605771914124489, 'z': -0.5146236419677734, 'w': 0.8570509552955627}","[0.0, 0.0, 0.0, 0.0, 0.0, 0.0, 0.0, 0.0, 0.0]","{'x': 0.0, 'y': 0.0, 'z': 0.0}","[0.0, 0.0, 0.0, 0.0, 0.0, 0.0, 0.0, 0.0, 0.0]","{'x': 0.0652419924736023, 'y': 0.5476736426353455, 'z': 11.040861129760742}","[0.0, 0.0, 0.0, 0.0, 0.0, 0.0, 0.0, 0.0, 0.0]"
2023/06/17 11:19:26.940638754,"{'stamp': {'secs': 1687011566, 'nsecs': 935044786}, 'frame_id': 'imu_link'}","{'x': 0.019802276045084, 'y': -0.01567688025534153, 'z': -0.5146229267120361, 'w': 0.8570394515991211}","[0.0, 0.0, 0.0, 0.0, 0.0, 0.0, 0.0, 0.0, 0.0]","{'x': 0.0, 'y': 0.0, 'z': 0.0}","[0.0, 0.0, 0.0, 0.0, 0.0, 0.0, 0.0, 0.0, 0.0]","{'x': 0.05386953800916672, 'y': 0.5434837937355042, 'z': 11.036072731018066}","[0.0, 0.0, 0.0, 0.0, 0.0, 0.0, 0.0, 0.0, 0.0]"
2023/06/17 11:19:26.988716902,"{'stamp': {'secs': 1687011566, 'nsecs': 985043318}, 'frame_id': 'imu_link'}","{'x': 0.019618554040789604, 'y': -0.014319465495646, 'z': -0.5146563053131104, 'w': 0.8570475578308105}","[0.0, 0.0, 0.0, 0.0, 0.0, 0.0, 0.0, 0.0, 0.0]","{'x': 0.0, 'y': 0.0, 'z': 0.0}","[0.0, 0.0, 0.0, 0.0, 0.0, 0.0, 0.0, 0.0, 0.0]","{'x': 0.07242459803819656, 'y': 0.5416881442070007, 'z': 10.998363494873047}","[0.0, 0.0, 0.0, 0.0, 0.0, 0.0, 0.0, 0.0, 0.0]"
2023/06/17 11:19:27.45279911,"{'stamp': {'secs': 1687011567, 'nsecs': 35044041}, 'frame_id': 'imu_link'}","{'x': 0.020136361941695213, 'y': -0.014906764030456543, 'z': -0.5146422386169434, 'w': 0.8570338487625122}","[0.0, 0.0, 0.0, 0.0, 0.0, 0.0, 0.0, 0.0, 0.0]","{'x': 0.0, 'y': 0.0, 'z': 0.0}","[0.0, 0.0, 0.0, 0.0, 0.0, 0.0, 0.0, 0.0, 0.0]","{'x': 0.04908113554120064, 'y': 0.5500678420066833, 'z': 11.008539199829102}","[0.0, 0.0, 0.0, 0.0, 0.0, 0.0, 0.0, 0.0, 0.0]"
2023/06/17 11:19:27.88453615,"{'stamp': {'secs': 1687011567, 'nsecs': 85067786}, 'frame_id': 'imu_link'}","{'x': 0.019724398851394653, 'y': -0.01528418529778719, 'z': -0.5146310925483704, 'w': 0.8570435047149658}","[0.0, 0.0, 0.0, 0.0, 0.0, 0.0, 0.0, 0.0, 0.0]","{'x': 0.0, 'y': 0.0, 'z': 0.0}","[0.0, 0.0, 0.0, 0.0, 0.0, 0.0, 0.0, 0.0, 0.0]","{'x': 0.07122749835252762, 'y': 0.5363011956214905, 'z': 11.027093887329102}","[0.0, 0.0, 0.0, 0.0, 0.0, 0.0, 0.0, 0.0, 0.0]"
2023/06/17 11:19:27.138803813,"{'stamp': {'secs': 1687011567, 'nsecs': 135040908}, 'frame_id': 'imu_link'}","{'x': 0.019066255539655685, 'y': -0.014715038239955902, 'z': -0.5146444439888, 'w': 0.8570603132247925}","[0.0, 0.0, 0.0, 0.0, 0.0, 0.0, 0.0, 0.0, 0.0]","{'x': 0.0, 'y': 0.0, 'z': 0.0}","[0.0, 0.0, 0.0, 0.0, 0.0, 0.0, 0.0, 0.0, 0.0]","{'x': 0.06165069341659546, 'y': 0.5267243385314941, 'z': 11.00015926361084}","[0.0, 0.0, 0.0, 0.0, 0.0, 0.0, 0.0, 0.0, 0.0]"
2023/06/17 11:19:27.196872893,"{'stamp': {'secs': 1687011567, 'nsecs': 185072882}, 'frame_id': 'imu_link'}","{'x': 0.020068103447556496, 'y': -0.014505227096378803, 'z': -0.5146535634994507, 'w': 0.8570355772972107}","[0.0, 0.0, 0.0, 0.0, 0.0, 0.0, 0.0, 0.0, 0.0]","{'x': 0.0, 'y': 0.0, 'z': 0.0}","[0.0, 0.0, 0.0, 0.0, 0.0, 0.0, 0.0, 0.0, 0.0]","{'x': 0.060453593730926514, 'y': 0.5494692921638489, 'z': 11.01751708984375}","[0.0, 0.0, 0.0, 0.0, 0.0, 0.0, 0.0, 0.0, 0.0]"
2023/06/17 11:19:27.240043368,"{'stamp': {'secs': 1687011567, 'nsecs': 235078920}, 'frame_id': 'imu_link'}","{'x': 0.0196693055331707, 'y': -0.014742011204361916, 'z': -0.5146461129188538, 'w': 0.8570451736450195}","[0.0, 0.0, 0.0, 0.0, 0.0, 0.0, 0.0, 0.0, 0.0]","{'x': 0.0, 'y': 0.0, 'z': 0.0}","[0.0, 0.0, 0.0, 0.0, 0.0, 0.0, 0.0, 0.0, 0.0]","{'x': 0.052073884755373, 'y': 0.5428852438926697, 'z': 11.042057991027832}","[0.0, 0.0, 0.0, 0.0, 0.0, 0.0, 0.0, 0.0, 0.0]"
2023/06/17 11:19:27.290540855,"{'stamp': {'secs': 1687011567, 'nsecs': 285078238}, 'frame_id': 'imu_link'}","{'x': 0.02011634036898613, 'y': -0.015442128293216228, 'z': -0.5146301984786987, 'w': 0.8570320010185242}","[0.0, 0.0, 0.0, 0.0, 0.0, 0.0, 0.0, 0.0, 0.0]","{'x': 0.0, 'y': 0.0, 'z': 0.0}","[0.0, 0.0, 0.0, 0.0, 0.0, 0.0, 0.0, 0.0, 0.0]","{'x': 0.06464344263076782, 'y': 0.5542576909065247, 'z': 11.012728691101074}","[0.0, 0.0, 0.0, 0.0, 0.0, 0.0, 0.0, 0.0, 0.0]"
2023/06/17 11:19:27.347142147,"{'stamp': {'secs': 1687011567, 'nsecs': 335037975}, 'frame_id': 'imu_link'}","{'x': 0.019446352496743202, 'y': -0.014221936464309692, 'z': -0.5146574378013611, 'w': 0.8570522665977478}","[0.0, 0.0, 0.0, 0.0, 0.0, 0.0, 0.0, 0.0, 0.0]","{'x': 0.0, 'y': 0.0, 'z': 0.0}","[0.0, 0.0, 0.0, 0.0, 0.0, 0.0, 0.0, 0.0, 0.0]","{'x': 0.0586579404771328, 'y': 0.5428852438926697, 'z': 11.050437927246094}","[0.0, 0.0, 0.0, 0.0, 0.0, 0.0, 0.0, 0.0, 0.0]"
2023/06/17 11:19:27.390342882,"{'stamp': {'secs': 1687011567, 'nsecs': 385149167}, 'frame_id': 'imu_link'}","{'x': 0.018042108044028282, 'y': -0.014472146518528461, 'z': -0.514646053314209, 'w': 0.857085645198822}","[0.0, 0.0, 0.0, 0.0, 0.0, 0.0, 0.0, 0.0, 0.0]","{'x': 0.0, 'y': 0.0, 'z': 0.0}","[0.0, 0.0, 0.0, 0.0, 0.0, 0.0, 0.0, 0.0, 0.0]","{'x': 0.07841010391712189, 'y': 0.5135562419891357, 'z': 11.034276962280273}","[0.0, 0.0, 0.0, 0.0, 0.0, 0.0, 0.0, 0.0, 0.0]"
2023/06/17 11:19:27.438375254,"{'stamp': {'secs': 1687011567, 'nsecs': 435069164}, 'frame_id': 'imu_link'}","{'x': 0.019404351711273193, 'y': -0.015240606851875782, 'z': -0.5146313905715942, 'w': 0.8570513129234314}","[0.0, 0.0, 0.0, 0.0, 0.0, 0.0, 0.0, 0.0, 0.0]","{'x': 0.0, 'y': 0.0, 'z': 0.0}","[0.0, 0.0, 0.0, 0.0, 0.0, 0.0, 0.0, 0.0, 0.0]","{'x': 0.07781155407428741, 'y': 0.5261257886886597, 'z': 11.028889656066895}","[0.0, 0.0, 0.0, 0.0, 0.0, 0.0, 0.0, 0.0, 0.0]"
2023/06/17 11:19:27.498863408,"{'stamp': {'secs': 1687011567, 'nsecs': 485044681}, 'frame_id': 'imu_link'}","{'x': 0.020338721573352814, 'y': -0.0154274208471179, 'z': -0.5146300196647644, 'w': 0.8570271730422974}","[0.0, 0.0, 0.0, 0.0, 0.0, 0.0, 0.0, 0.0, 0.0]","{'x': 0.0, 'y': 0.0, 'z': 0.0}","[0.0, 0.0, 0.0, 0.0, 0.0, 0.0, 0.0, 0.0, 0.0]","{'x': 0.040701426565647125, 'y': 0.5518634915351868, 'z': 11.0486421585083}","[0.0, 0.0, 0.0, 0.0, 0.0, 0.0, 0.0, 0.0, 0.0]"
2023/06/17 11:19:27.540521408,"{'stamp': {'secs': 1687011567, 'nsecs': 535044260}, 'frame_id': 'imu_link'}","{'x': 0.02015823870897293, 'y': -0.014579612761735916, 'z': -0.514651358127594, 'w': 0.8570334911346436}","[0.0, 0.0, 0.0, 0.0, 0.0, 0.0, 0.0, 0.0, 0.0]","{'x': 0.0, 'y': 0.0, 'z': 0.0}","[0.0, 0.0, 0.0, 0.0, 0.0, 0.0, 0.0, 0.0, 0.0]","{'x': 0.04728548228740692, 'y': 0.5416881442070007, 'z': 11.019911766052246}","[0.0, 0.0, 0.0, 0.0, 0.0, 0.0, 0.0, 0.0, 0.0]"
2023/06/17 11:19:27.587495101,"{'stamp': {'secs': 1687011567, 'nsecs': 585073370}, 'frame_id': 'imu_link'}","{'x': 0.018693789839744568, 'y': -0.01498472224920988, 'z': -0.514637291431427, 'w': 0.8570681810379028}","[0.0, 0.0, 0.0, 0.0, 0.0, 0.0, 0.0, 0.0, 0.0]","{'x': 0.0, 'y': 0.0, 'z': 0.0}","[0.0, 0.0, 0.0, 0.0, 0.0, 0.0, 0.0, 0.0, 0.0]","{'x': 0.061052143573760986, 'y': 0.5392939448356628, 'z': 10.992977142333984}","[0.0, 0.0, 0.0, 0.0, 0.0, 0.0, 0.0, 0.0, 0.0]"
2023/06/17 11:19:27.647834611,"{'stamp': {'secs': 1687011567, 'nsecs': 635063627}, 'frame_id': 'imu_link'}","{'x': 0.019395917654037476, 'y': -0.015471183694899082, 'z': -0.5146274566650391, 'w': 0.8570497632026672}","[0.0, 0.0, 0.0, 0.0, 0.0, 0.0, 0.0, 0.0, 0.0]","{'x': 0.0, 'y': 0.0, 'z': 0.0}","[0.0, 0.0, 0.0, 0.0, 0.0, 0.0, 0.0, 0.0, 0.0]","{'x': 0.07362169772386551, 'y': 0.5440823435783386, 'z': 11.022904396057129}","[0.0, 0.0, 0.0, 0.0, 0.0, 0.0, 0.0, 0.0, 0.0]"
2023/06/17 11:19:27.690823526,"{'stamp': {'secs': 1687011567, 'nsecs': 685027530}, 'frame_id': 'imu_link'}","{'x': 0.019396090880036354, 'y': -0.015328571200370789, 'z': -0.5146310329437256, 'w': 0.8570502996444702}","[0.0, 0.0, 0.0, 0.0, 0.0, 0.0, 0.0, 0.0, 0.0]","{'x': 0.0, 'y': 0.0, 'z': 0.0}","[0.0, 0.0, 0.0, 0.0, 0.0, 0.0, 0.0, 0.0, 0.0]","{'x': 0.06763619929552078, 'y': 0.5464765429496765, 'z': 11.037269592285156}","[0.0, 0.0, 0.0, 0.0, 0.0, 0.0, 0.0, 0.0, 0.0]"
2023/06/17 11:19:27.739081833,"{'stamp': {'secs': 1687011567, 'nsecs': 735019297}, 'frame_id': 'imu_link'}","{'x': 0.019236180931329727, 'y': -0.015247964300215244, 'z': -0.5146313309669495, 'w': 0.857055127620697}","[0.0, 0.0, 0.0, 0.0, 0.0, 0.0, 0.0, 0.0, 0.0]","{'x': 0.0, 'y': 0.0, 'z': 0.0}","[0.0, 0.0, 0.0, 0.0, 0.0, 0.0, 0.0, 0.0, 0.0]","{'x': 0.07541735470294952, 'y': 0.5225344896316528, 'z': 11.01512336730957}","[0.0, 0.0, 0.0, 0.0, 0.0, 0.0, 0.0, 0.0, 0.0]"
2023/06/17 11:19:27.797067841,"{'stamp': {'secs': 1687011567, 'nsecs': 785026740}, 'frame_id': 'imu_link'}","{'x': 0.01997477374970913, 'y': -0.015295437537133694, 'z': -0.5146322250366211, 'w': 0.8570368885993958}","[0.0, 0.0, 0.0, 0.0, 0.0, 0.0, 0.0, 0.0, 0.0]","{'x': 0.0, 'y': 0.0, 'z': 0.0}","[0.0, 0.0, 0.0, 0.0, 0.0, 0.0, 0.0, 0.0, 0.0]","{'x': 0.076015904545784, 'y': 0.5410895943641663, 'z': 11.0486421585083}","[0.0, 0.0, 0.0, 0.0, 0.0, 0.0, 0.0, 0.0, 0.0]"
2023/06/17 11:19:27.840005976,"{'stamp': {'secs': 1687011567, 'nsecs': 835034861}, 'frame_id': 'imu_link'}","{'x': 0.020014507696032524, 'y': -0.015196858905255795, 'z': -0.5146344304084778, 'w': 0.8570363521575928}","[0.0, 0.0, 0.0, 0.0, 0.0, 0.0, 0.0, 0.0, 0.0]","{'x': 0.0, 'y': 0.0, 'z': 0.0}","[0.0, 0.0, 0.0, 0.0, 0.0, 0.0, 0.0, 0.0, 0.0]","{'x': 0.08080430328845978, 'y': 0.5554547905921936, 'z': 11.025897026062012}","[0.0, 0.0, 0.0, 0.0, 0.0, 0.0, 0.0, 0.0, 0.0]"
2023/06/17 11:19:27.889307181,"{'stamp': {'secs': 1687011567, 'nsecs': 885011889}, 'frame_id': 'imu_link'}","{'x': 0.020610995590686798, 'y': -0.014870991930365562, 'z': -0.5146450400352478, 'w': 0.8570213913917542}","[0.0, 0.0, 0.0, 0.0, 0.0, 0.0, 0.0, 0.0, 0.0]","{'x': -0.007449400145560503, 'y': 0.0, 'z': 0.0}","[0.0, 0.0, 0.0, 0.0, 0.0, 0.0, 0.0, 0.0, 0.0]","{'x': 0.0347159244120121, 'y': 0.5500678420066833, 'z': 11.025299072265625}","[0.0, 0.0, 0.0, 0.0, 0.0, 0.0, 0.0, 0.0, 0.0]"
2023/06/17 11:19:27.947233555,"{'stamp': {'secs': 1687011567, 'nsecs': 935066155}, 'frame_id': 'imu_link'}","{'x': 0.020835714414715767, 'y': -0.016683535650372505, 'z': -0.5147403478622437, 'w': 0.8569255471229553}","[0.0, 0.0, 0.0, 0.0, 0.0, 0.0, 0.0, 0.0, 0.0]","{'x': -0.206454798579216, 'y': 0.009577799588441849, 'z': 0.01383460033684969}","[0.0, 0.0, 0.0, 0.0, 0.0, 0.0, 0.0, 0.0, 0.0]","{'x': 0.16998831927776337, 'y': 0.6482300758361816, 'z': 11.377245903015137}","[0.0, 0.0, 0.0, 0.0, 0.0, 0.0, 0.0, 0.0, 0.0]"
2023/06/17 11:19:27.991710206,"{'stamp': {'secs': 1687011567, 'nsecs': 985023964}, 'frame_id': 'imu_link'}","{'x': 0.015536702238023281, 'y': -0.012182227335870266, 'z': -0.514664888381958, 'w': 0.8571591377258301}","[0.0, 0.0, 0.0, 0.0, 0.0, 0.0, 0.0, 0.0, 0.0]","{'x': -0.2756277918815613, 'y': 0.0, 'z': 0.02447660081088543}","[0.0, 0.0, 0.0, 0.0, 0.0, 0.0, 0.0, 0.0, 0.0]","{'x': 0.1173158809542656, 'y': 0.2992752194404602, 'z': 11.005546569824219}","[0.0, 0.0, 0.0, 0.0, 0.0, 0.0, 0.0, 0.0, 0.0]"
2023/06/17 11:19:28.38333491,"{'stamp': {'secs': 1687011568, 'nsecs': 35035630}, 'frame_id': 'imu_link'}","{'x': 0.00983976200222969, 'y': -0.008294899947941303, 'z': -0.5143792033195496, 'w': 0.857461154460907}","[0.0, 0.0, 0.0, 0.0, 0.0, 0.0, 0.0, 0.0, 0.0]","{'x': -0.3543786108493805, 'y': -0.004256799817085266, 'z': 0.011706200428307056}","[0.0, 0.0, 0.0, 0.0, 0.0, 0.0, 0.0, 0.0, 0.0]","{'x': -0.07661445438861847, 'y': 0.016759412363171577, 'z': 10.868478775024414}","[0.0, 0.0, 0.0, 0.0, 0.0, 0.0, 0.0, 0.0, 0.0]"
2023/06/17 11:19:28.96454504,"{'stamp': {'secs': 1687011568, 'nsecs': 85039850}, 'frame_id': 'imu_link'}","{'x': 1.278391891901265e-06, 'y': -0.0034793545491993427, 'z': -0.5144098401069641, 'w': 0.8575323820114136}","[0.0, 0.0, 0.0, 0.0, 0.0, 0.0, 0.0, 0.0, 0.0]","{'x': -0.3873687982559204, 'y': -0.004256799817085266, 'z': -0.009577799588441849}","[0.0, 0.0, 0.0, 0.0, 0.0, 0.0, 0.0, 0.0, 0.0]","{'x': 0.15682020783424377, 'y': -0.33997663855552673, 'z': 10.991181373596191}","[0.0, 0.0, 0.0, 0.0, 0.0, 0.0, 0.0, 0.0, 0.0]"
2023/06/17 11:19:28.139696597,"{'stamp': {'secs': 1687011568, 'nsecs': 135097975}, 'frame_id': 'imu_link'}","{'x': -0.0071457684971392155, 'y': 0.0027221119962632656, 'z': -0.5140678882598877, 'w': 0.8577104210853577}","[0.0, 0.0, 0.0, 0.0, 0.0, 0.0, 0.0, 0.0, 0.0]","{'x': -0.40333178639411926, 'y': -0.009577799588441849, 'z': 0.010641999542713165}","[0.0, 0.0, 0.0, 0.0, 0.0, 0.0, 0.0, 0.0, 0.0]","{'x': -0.038307227194309235, 'y': -0.15741875767707825, 'z': 10.749366760253906}","[0.0, 0.0, 0.0, 0.0, 0.0, 0.0, 0.0, 0.0, 0.0]"
2023/06/17 11:19:28.188853383,"{'stamp': {'secs': 1687011568, 'nsecs': 185031728}, 'frame_id': 'imu_link'}","{'x': -0.014155484735965729, 'y': 0.006983799859881401, 'z': -0.5140967965126038, 'w': 0.8575817942619324}","[0.0, 0.0, 0.0, 0.0, 0.0, 0.0, 0.0, 0.0, 0.0]","{'x': -0.3884330093860626, 'y': -0.008513599634170532, 'z': 0.011706200428307056}","[0.0, 0.0, 0.0, 0.0, 0.0, 0.0, 0.0, 0.0, 0.0]","{'x': 0.0017956512747332454, 'y': 0.04429272934794426, 'z': 11.39280891418457}","[0.0, 0.0, 0.0, 0.0, 0.0, 0.0, 0.0, 0.0, 0.0]"
2023/06/17 11:19:28.245515045,"{'stamp': {'secs': 1687011568, 'nsecs': 235072666}, 'frame_id': 'imu_link'}","{'x': -0.023547733202576637, 'y': 0.010706708766520023, 'z': -0.5141535997390747, 'w': 0.8573030233383179}","[0.0, 0.0, 0.0, 0.0, 0.0, 0.0, 0.0, 0.0, 0.0]","{'x': -0.2628574073314667, 'y': 0.005320999771356583, 'z': -0.014898800291121006}","[0.0, 0.0, 0.0, 0.0, 0.0, 0.0, 0.0, 0.0, 0.0]","{'x': 0.08559270948171616, 'y': -0.7433996200561523, 'z': 10.634445190429688}","[0.0, 0.0, 0.0, 0.0, 0.0, 0.0, 0.0, 0.0, 0.0]"
2023/06/17 11:19:28.288496101,"{'stamp': {'secs': 1687011568, 'nsecs': 285020846}, 'frame_id': 'imu_link'}","{'x': -0.026128051802515984, 'y': 0.012677278369665146, 'z': -0.5144233703613281, 'w': 0.8570394515991211}","[0.0, 0.0, 0.0, 0.0, 0.0, 0.0, 0.0, 0.0, 0.0]","{'x': -0.17559300363063812, 'y': 0.010641999542713165, 'z': -0.014898800291121006}","[0.0, 0.0, 0.0, 0.0, 0.0, 0.0, 0.0, 0.0, 0.0]","{'x': 0.020949264988303185, 'y': -0.9828197956085205, 'z': 10.897209167480469}","[0.0, 0.0, 0.0, 0.0, 0.0, 0.0, 0.0, 0.0, 0.0]"
2023/06/17 11:19:28.339078176,"{'stamp': {'secs': 1687011568, 'nsecs': 335051316}, 'frame_id': 'imu_link'}","{'x': -0.029410960152745247, 'y': 0.01636885292828083, 'z': -0.5146751999855042, 'w': 0.8567193150520325}","[0.0, 0.0, 0.0, 0.0, 0.0, 0.0, 0.0, 0.0, 0.0]","{'x': -0.03618279844522476, 'y': 0.0, 'z': -0.01383460033684969}","[0.0, 0.0, 0.0, 0.0, 0.0, 0.0, 0.0, 0.0, 0.0]","{'x': 0.020350713282823563, 'y': -0.7679401636123657, 'z': 10.839149475097656}","[0.0, 0.0, 0.0, 0.0, 0.0, 0.0, 0.0, 0.0, 0.0]"
2023/06/17 11:19:28.397087784,"{'stamp': {'secs': 1687011568, 'nsecs': 384994808}, 'frame_id': 'imu_link'}","{'x': -0.027152838185429573, 'y': 0.013451538048684597, 'z': -0.5147792100906372, 'w': 0.8567821979522705}","[0.0, 0.0, 0.0, 0.0, 0.0, 0.0, 0.0, 0.0, 0.0]","{'x': -0.007449400145560503, 'y': 0.0, 'z': 0.0}","[0.0, 0.0, 0.0, 0.0, 0.0, 0.0, 0.0, 0.0, 0.0]","{'x': 0.05147533491253853, 'y': -0.6913257241249084, 'z': 11.05642318725586}","[0.0, 0.0, 0.0, 0.0, 0.0, 0.0, 0.0, 0.0, 0.0]"
2023/06/17 11:19:28.439978112,"{'stamp': {'secs': 1687011568, 'nsecs': 435013819}, 'frame_id': 'imu_link'}","{'x': -0.02701825276017189, 'y': 0.012361892499029636, 'z': -0.5148122310638428, 'w': 0.8567829728126526}","[0.0, 0.0, 0.0, 0.0, 0.0, 0.0, 0.0, 0.0, 0.0]","{'x': 0.0, 'y': 0.0, 'z': 0.0}","[0.0, 0.0, 0.0, 0.0, 0.0, 0.0, 0.0, 0.0, 0.0]","{'x': 0.07242459803819656, 'y': -0.6494271755218506, 'z': 10.984597206115723}","[0.0, 0.0, 0.0, 0.0, 0.0, 0.0, 0.0, 0.0, 0.0]"
2023/06/17 11:19:28.488335901,"{'stamp': {'secs': 1687011568, 'nsecs': 485051476}, 'frame_id': 'imu_link'}","{'x': -0.02676106058061123, 'y': 0.012907995842397213, 'z': -0.5147972106933594, 'w': 0.8567920327186584}","[0.0, 0.0, 0.0, 0.0, 0.0, 0.0, 0.0, 0.0, 0.0]","{'x': 0.0, 'y': 0.0, 'z': 0.0}","[0.0, 0.0, 0.0, 0.0, 0.0, 0.0, 0.0, 0.0, 0.0]","{'x': 0.05506663769483566, 'y': -0.6733692288398743, 'z': 10.984597206115723}","[0.0, 0.0, 0.0, 0.0, 0.0, 0.0, 0.0, 0.0, 0.0]"
2023/06/17 11:19:28.547488250,"{'stamp': {'secs': 1687011568, 'nsecs': 535037468}, 'frame_id': 'imu_link'}","{'x': -0.026649152860045433, 'y': 0.013830835931003094, 'z': -0.5147698521614075, 'w': 0.8567975163459778}","[0.0, 0.0, 0.0, 0.0, 0.0, 0.0, 0.0, 0.0, 0.0]","{'x': 0.0, 'y': 0.0, 'z': 0.0}","[0.0, 0.0, 0.0, 0.0, 0.0, 0.0, 0.0, 0.0, 0.0]","{'x': 0.06165069341659546, 'y': -0.6727706789970398, 'z': 10.966042518615723}","[0.0, 0.0, 0.0, 0.0, 0.0, 0.0, 0.0, 0.0, 0.0]"
2023/06/17 11:19:28.590352537,"{'stamp': {'secs': 1687011568, 'nsecs': 585046480}, 'frame_id': 'imu_link'}","{'x': -0.02667456492781639, 'y': 0.01234718132764101, 'z': -0.5148150324821472, 'w': 0.8567923307418823}","[0.0, 0.0, 0.0, 0.0, 0.0, 0.0, 0.0, 0.0, 0.0]","{'x': 0.0, 'y': 0.0, 'z': 0.0}","[0.0, 0.0, 0.0, 0.0, 0.0, 0.0, 0.0, 0.0, 0.0]","{'x': 0.060453593730926514, 'y': -0.6596025824546814, 'z': 11.019911766052246}","[0.0, 0.0, 0.0, 0.0, 0.0, 0.0, 0.0, 0.0, 0.0]"
2023/06/17 11:19:28.638478716,"{'stamp': {'secs': 1687011568, 'nsecs': 635058304}, 'frame_id': 'imu_link'}","{'x': -0.026187434792518616, 'y': 0.012943057343363762, 'z': -0.5147996544837952, 'w': 0.8568077683448792}","[0.0, 0.0, 0.0, 0.0, 0.0, 0.0, 0.0, 0.0, 0.0]","{'x': 0.0, 'y': 0.0, 'z': 0.0}","[0.0, 0.0, 0.0, 0.0, 0.0, 0.0, 0.0, 0.0, 0.0]","{'x': 0.05626373738050461, 'y': -0.6368576288223267, 'z': 10.970232009887695}","[0.0, 0.0, 0.0, 0.0, 0.0, 0.0, 0.0, 0.0, 0.0]"
2023/06/17 11:19:28.695212616,"{'stamp': {'secs': 1687011568, 'nsecs': 684985755}, 'frame_id': 'imu_link'}","{'x': -0.026496222242712975, 'y': 0.012606167234480381, 'z': -0.5148080587387085, 'w': 0.8567981719970703}","[0.0, 0.0, 0.0, 0.0, 0.0, 0.0, 0.0, 0.0, 0.0]","{'x': 0.0, 'y': 0.0, 'z': 0.0}","[0.0, 0.0, 0.0, 0.0, 0.0, 0.0, 0.0, 0.0, 0.0]","{'x': 0.046088382601737976, 'y': -0.6506242752075195, 'z': 10.967239379882812}","[0.0, 0.0, 0.0, 0.0, 0.0, 0.0, 0.0, 0.0, 0.0]"
2023/06/17 11:19:28.739556774,"{'stamp': {'secs': 1687011568, 'nsecs': 735008568}, 'frame_id': 'imu_link'}","{'x': -0.026279058307409286, 'y': 0.012783803977072239, 'z': -0.514803946018219, 'w': 0.8568047285079956}","[0.0, 0.0, 0.0, 0.0, 0.0, 0.0, 0.0, 0.0, 0.0]","{'x': 0.0, 'y': 0.0, 'z': 0.0}","[0.0, 0.0, 0.0, 0.0, 0.0, 0.0, 0.0, 0.0, 0.0]","{'x': 0.0652419924736023, 'y': -0.6494271755218506, 'z': 10.987589836120605}","[0.0, 0.0, 0.0, 0.0, 0.0, 0.0, 0.0, 0.0, 0.0]"
2023/06/17 11:19:28.788831527,"{'stamp': {'secs': 1687011568, 'nsecs': 785006226}, 'frame_id': 'imu_link'}","{'x': -0.026450078934431076, 'y': 0.012804117053747177, 'z': -0.5148032903671265, 'w': 0.8567995429039001}","[0.0, 0.0, 0.0, 0.0, 0.0, 0.0, 0.0, 0.0, 0.0]","{'x': 0.0, 'y': 0.0, 'z': 0.0}","[0.0, 0.0, 0.0, 0.0, 0.0, 0.0, 0.0, 0.0, 0.0]","{'x': 0.058059390634298325, 'y': -0.6482300758361816, 'z': 10.989385604858398}","[0.0, 0.0, 0.0, 0.0, 0.0, 0.0, 0.0, 0.0, 0.0]"
2023/06/17 11:19:28.845642926,"{'stamp': {'secs': 1687011568, 'nsecs': 835016175}, 'frame_id': 'imu_link'}","{'x': -0.026668289676308632, 'y': 0.012250164523720741, 'z': -0.51482093334198, 'w': 0.85679030418396}","[0.0, 0.0, 0.0, 0.0, 0.0, 0.0, 0.0, 0.0, 0.0]","{'x': 0.0, 'y': 0.0, 'z': 0.0}","[0.0, 0.0, 0.0, 0.0, 0.0, 0.0, 0.0, 0.0, 0.0]","{'x': 0.07062894850969315, 'y': -0.6416460275650024, 'z': 10.98399829864502}","[0.0, 0.0, 0.0, 0.0, 0.0, 0.0, 0.0, 0.0, 0.0]"
2023/06/17 11:19:28.888572836,"{'stamp': {'secs': 1687011568, 'nsecs': 885016333}, 'frame_id': 'imu_link'}","{'x': -0.027067627757787704, 'y': 0.01216944120824337, 'z': -0.5148220062255859, 'w': 0.8567783236503601}","[0.0, 0.0, 0.0, 0.0, 0.0, 0.0, 0.0, 0.0, 0.0]","{'x': 0.0, 'y': 0.0, 'z': 0.0}","[0.0, 0.0, 0.0, 0.0, 0.0, 0.0, 0.0, 0.0, 0.0]","{'x': 0.061052143573760986, 'y': -0.6703764796257019, 'z': 10.987589836120605}","[0.0, 0.0, 0.0, 0.0, 0.0, 0.0, 0.0, 0.0, 0.0]"
2023/06/17 11:19:28.940444786,"{'stamp': {'secs': 1687011568, 'nsecs': 935038157}, 'frame_id': 'imu_link'}","{'x': -0.02652304247021675, 'y': 0.01340431161224842, 'z': -0.5147855877876282, 'w': 0.8567987084388733}","[0.0, 0.0, 0.0, 0.0, 0.0, 0.0, 0.0, 0.0, 0.0]","{'x': 0.0, 'y': 0.0, 'z': 0.0}","[0.0, 0.0, 0.0, 0.0, 0.0, 0.0, 0.0, 0.0, 0.0]","{'x': 0.047884032130241394, 'y': -0.652419924736023, 'z': 10.970830917358398}","[0.0, 0.0, 0.0, 0.0, 0.0, 0.0, 0.0, 0.0, 0.0]"
2023/06/17 11:19:28.997274518,"{'stamp': {'secs': 1687011568, 'nsecs': 985007378}, 'frame_id': 'imu_link'}","{'x': -0.02705198898911476, 'y': 0.012125721201300621, 'z': -0.514822244644165, 'w': 0.8567792773246765}","[0.0, 0.0, 0.0, 0.0, 0.0, 0.0, 0.0, 0.0, 0.0]","{'x': 0.0, 'y': 0.0, 'z': 0.0}","[0.0, 0.0, 0.0, 0.0, 0.0, 0.0, 0.0, 0.0, 0.0]","{'x': 0.07781155407428741, 'y': -0.6470329761505127, 'z': 10.986991882324219}","[0.0, 0.0, 0.0, 0.0, 0.0, 0.0, 0.0, 0.0, 0.0]"
2023/06/17 11:19:29.41727376,"{'stamp': {'secs': 1687011569, 'nsecs': 35025403}, 'frame_id': 'imu_link'}","{'x': -0.02709770016372204, 'y': 0.013385652564466, 'z': -0.5147845149040222, 'w': 0.8567817807197571}","[0.0, 0.0, 0.0, 0.0, 0.0, 0.0, 0.0, 0.0, 0.0]","{'x': 0.0, 'y': 0.0, 'z': 0.0}","[0.0, 0.0, 0.0, 0.0, 0.0, 0.0, 0.0, 0.0, 0.0]","{'x': 0.06344634294509888, 'y': -0.6625953316688538, 'z': 10.999561309814453}","[0.0, 0.0, 0.0, 0.0, 0.0, 0.0, 0.0, 0.0, 0.0]"
2023/06/17 11:19:29.88336449,"{'stamp': {'secs': 1687011569, 'nsecs': 84991088}, 'frame_id': 'imu_link'}","{'x': -0.027549300342798233, 'y': 0.014127681963145733, 'z': -0.5147600173950195, 'w': 0.8567700982093811}","[0.0, 0.0, 0.0, 0.0, 0.0, 0.0, 0.0, 0.0, 0.0]","{'x': 0.0, 'y': 0.0, 'z': 0.0}","[0.0, 0.0, 0.0, 0.0, 0.0, 0.0, 0.0, 0.0, 0.0]","{'x': 0.04908113554120064, 'y': -0.6787561774253845, 'z': 10.992977142333984}","[0.0, 0.0, 0.0, 0.0, 0.0, 0.0, 0.0, 0.0, 0.0]"
2023/06/17 11:19:29.146391584,"{'stamp': {'secs': 1687011569, 'nsecs': 135074375}, 'frame_id': 'imu_link'}","{'x': -0.02743694931268692, 'y': 0.012450854294002056, 'z': -0.514811635017395, 'w': 0.856768786907196}","[0.0, 0.0, 0.0, 0.0, 0.0, 0.0, 0.0, 0.0, 0.0]","{'x': 0.0, 'y': 0.0, 'z': 0.0}","[0.0, 0.0, 0.0, 0.0, 0.0, 0.0, 0.0, 0.0, 0.0]","{'x': 0.07541735470294952, 'y': -0.6596025824546814, 'z': 11.007342338562012}","[0.0, 0.0, 0.0, 0.0, 0.0, 0.0, 0.0, 0.0, 0.0]"
2023/06/17 11:19:29.190794288,"{'stamp': {'secs': 1687011569, 'nsecs': 187388563}, 'frame_id': 'imu_link'}","{'x': -0.02693372592329979, 'y': 0.013236179016530514, 'z': -0.5147892832756042, 'w': 0.8567864298820496}","[0.0, 0.0, 0.0, 0.0, 0.0, 0.0, 0.0, 0.0, 0.0]","{'x': 0.0, 'y': 0.0, 'z': 0.0}","[0.0, 0.0, 0.0, 0.0, 0.0, 0.0, 0.0, 0.0, 0.0]","{'x': 0.05506663769483566, 'y': -0.6572083830833435, 'z': 10.986991882324219}","[0.0, 0.0, 0.0, 0.0, 0.0, 0.0, 0.0, 0.0, 0.0]"
2023/06/17 11:19:29.238912242,"{'stamp': {'secs': 1687011569, 'nsecs': 235044129}, 'frame_id': 'imu_link'}","{'x': -0.02695646695792675, 'y': 0.012989819049835205, 'z': -0.514796793460846, 'w': 0.8567848801612854}","[0.0, 0.0, 0.0, 0.0, 0.0, 0.0, 0.0, 0.0, 0.0]","{'x': 0.0, 'y': 0.0, 'z': 0.0}","[0.0, 0.0, 0.0, 0.0, 0.0, 0.0, 0.0, 0.0, 0.0]","{'x': 0.060453593730926514, 'y': -0.6572083830833435, 'z': 11.005546569824219}","[0.0, 0.0, 0.0, 0.0, 0.0, 0.0, 0.0, 0.0, 0.0]"
2023/06/17 11:19:29.294361014,"{'stamp': {'secs': 1687011569, 'nsecs': 285036584}, 'frame_id': 'imu_link'}","{'x': -0.026454878970980644, 'y': 0.013146578334271908, 'z': -0.5147919654846191, 'w': 0.85680091381073}","[0.0, 0.0, 0.0, 0.0, 0.0, 0.0, 0.0, 0.0, 0.0]","{'x': 0.0, 'y': 0.0, 'z': 0.0}","[0.0, 0.0, 0.0, 0.0, 0.0, 0.0, 0.0, 0.0, 0.0]","{'x': 0.050876785069704056, 'y': -0.6482300758361816, 'z': 10.976217269897461}","[0.0, 0.0, 0.0, 0.0, 0.0, 0.0, 0.0, 0.0, 0.0]"
2023/06/17 11:19:29.338466327,"{'stamp': {'secs': 1687011569, 'nsecs': 334995446}, 'frame_id': 'imu_link'}","{'x': -0.026915758848190308, 'y': 0.012450888752937317, 'z': -0.5148115754127502, 'w': 0.856785237789154}","[0.0, 0.0, 0.0, 0.0, 0.0, 0.0, 0.0, 0.0, 0.0]","{'x': 0.0, 'y': 0.0, 'z': 0.0}","[0.0, 0.0, 0.0, 0.0, 0.0, 0.0, 0.0, 0.0, 0.0]","{'x': 0.06883329898118973, 'y': -0.6488286256790161, 'z': 10.988786697387695}","[0.0, 0.0, 0.0, 0.0, 0.0, 0.0, 0.0, 0.0, 0.0]"
2023/06/17 11:19:29.395354970,"{'stamp': {'secs': 1687011569, 'nsecs': 384981235}, 'frame_id': 'imu_link'}","{'x': -0.027001071721315384, 'y': 0.012678123079240322, 'z': -0.5148049592971802, 'w': 0.8567831516265869}","[0.0, 0.0, 0.0, 0.0, 0.0, 0.0, 0.0, 0.0, 0.0]","{'x': 0.0, 'y': 0.0, 'z': 0.0}","[0.0, 0.0, 0.0, 0.0, 0.0, 0.0, 0.0, 0.0, 0.0]","{'x': 0.07302314788103104, 'y': -0.652419924736023, 'z': 11.01392650604248}","[0.0, 0.0, 0.0, 0.0, 0.0, 0.0, 0.0, 0.0, 0.0]"
2023/06/17 11:19:29.439603822,"{'stamp': {'secs': 1687011569, 'nsecs': 435033481}, 'frame_id': 'imu_link'}","{'x': -0.027169397100806236, 'y': 0.011927331797778606, 'z': -0.5148268342018127, 'w': 0.8567754626274109}","[0.0, 0.0, 0.0, 0.0, 0.0, 0.0, 0.0, 0.0, 0.0]","{'x': 0.0, 'y': 0.0, 'z': 0.0}","[0.0, 0.0, 0.0, 0.0, 0.0, 0.0, 0.0, 0.0, 0.0]","{'x': 0.08140285313129425, 'y': -0.6596025824546814, 'z': 11.009138107299805}","[0.0, 0.0, 0.0, 0.0, 0.0, 0.0, 0.0, 0.0, 0.0]"
2023/06/17 11:19:29.489100816,"{'stamp': {'secs': 1687011569, 'nsecs': 484988332}, 'frame_id': 'imu_link'}","{'x': -0.027680695056915283, 'y': 0.012882962822914124, 'z': -0.5147973299026489, 'w': 0.8567631244659424}","[0.0, 0.0, 0.0, 0.0, 0.0, 0.0, 0.0, 0.0, 0.0]","{'x': 0.0, 'y': 0.0, 'z': 0.0}","[0.0, 0.0, 0.0, 0.0, 0.0, 0.0, 0.0, 0.0, 0.0]","{'x': 0.06763619929552078, 'y': -0.6542155742645264, 'z': 10.994772911071777}","[0.0, 0.0, 0.0, 0.0, 0.0, 0.0, 0.0, 0.0, 0.0]"
2023/06/17 11:19:29.545587591,"{'stamp': {'secs': 1687011569, 'nsecs': 535002245}, 'frame_id': 'imu_link'}","{'x': -0.025526927784085274, 'y': 0.013754189014434814, 'z': -0.514823317527771, 'w': 0.8568007349967957}","[0.0, 0.0, 0.0, 0.0, 0.0, 0.0, 0.0, 0.0, 0.0]","{'x': 0.10642000287771225, 'y': -0.0063852001912891865, 'z': -0.007449400145560503}","[0.0, 0.0, 0.0, 0.0, 0.0, 0.0, 0.0, 0.0, 0.0]","{'x': 0.16759411990642548, 'y': -0.7374141216278076, 'z': 11.10490608215332}","[0.0, 0.0, 0.0, 0.0, 0.0, 0.0, 0.0, 0.0, 0.0]"
2023/06/17 11:19:29.591408501,"{'stamp': {'secs': 1687011569, 'nsecs': 585048866}, 'frame_id': 'imu_link'}","{'x': -0.021330615505576134, 'y': 0.010236546397209167, 'z': -0.5147690176963806, 'w': 0.8569973111152649}","[0.0, 0.0, 0.0, 0.0, 0.0, 0.0, 0.0, 0.0, 0.0]","{'x': 0.24902279675006866, 'y': -0.004256799817085266, 'z': 0.02128399908542633}","[0.0, 0.0, 0.0, 0.0, 0.0, 0.0, 0.0, 0.0, 0.0]","{'x': 0.1711854189634323, 'y': -0.3621230125427246, 'z': 11.462839126586914}","[0.0, 0.0, 0.0, 0.0, 0.0, 0.0, 0.0, 0.0, 0.0]"
2023/06/17 11:19:29.640626854,"{'stamp': {'secs': 1687011569, 'nsecs': 635049446}, 'frame_id': 'imu_link'}","{'x': -0.016627812758088112, 'y': 0.007868229411542416, 'z': -0.5146297216415405, 'w': 0.857210099697113}","[0.0, 0.0, 0.0, 0.0, 0.0, 0.0, 0.0, 0.0, 0.0]","{'x': 0.27988460659980774, 'y': 0.004256799817085266, 'z': 0.012770400382578373}","[0.0, 0.0, 0.0, 0.0, 0.0, 0.0, 0.0, 0.0, 0.0]","{'x': 0.008379706181585789, 'y': -0.424970805644989, 'z': 10.785280227661133}","[0.0, 0.0, 0.0, 0.0, 0.0, 0.0, 0.0, 0.0, 0.0]"
2023/06/17 11:19:29.692201471,"{'stamp': {'secs': 1687011569, 'nsecs': 685015496}, 'frame_id': 'imu_link'}","{'x': -0.010555320419371128, 'y': 0.0045503415167331696, 'z': -0.5146051049232483, 'w': 0.8573452234268188}","[0.0, 0.0, 0.0, 0.0, 0.0, 0.0, 0.0, 0.0, 0.0]","{'x': 0.2000696063041687, 'y': 0.0, 'z': 0.007449400145560503}","[0.0, 0.0, 0.0, 0.0, 0.0, 0.0, 0.0, 0.0, 0.0]","{'x': 0.013766659423708916, 'y': -0.28072014451026917, 'z': 11.183316230773926}","[0.0, 0.0, 0.0, 0.0, 0.0, 0.0, 0.0, 0.0, 0.0]"
2023/06/17 11:19:29.737667959,"{'stamp': {'secs': 1687011569, 'nsecs': 735004305}, 'frame_id': 'imu_link'}","{'x': -0.0051533496007323265, 'y': 0.0015781960682943463, 'z': -0.5143140554428101, 'w': 0.8575799465179443}","[0.0, 0.0, 0.0, 0.0, 0.0, 0.0, 0.0, 0.0, 0.0]","{'x': 0.15856580436229706, 'y': 0.0, 'z': 0.0}","[0.0, 0.0, 0.0, 0.0, 0.0, 0.0, 0.0, 0.0, 0.0]","{'x': 0.012569558806717396, 'y': -0.32261866331100464, 'z': 10.871471405029297}","[0.0, 0.0, 0.0, 0.0, 0.0, 0.0, 0.0, 0.0, 0.0]"
2023/06/17 11:19:29.798230864,"{'stamp': {'secs': 1687011569, 'nsecs': 784983479}, 'frame_id': 'imu_link'}","{'x': -0.0033184268977493048, 'y': -0.0007147530559450388, 'z': -0.5143054127693176, 'w': 0.8575953841209412}","[0.0, 0.0, 0.0, 0.0, 0.0, 0.0, 0.0, 0.0, 0.0]","{'x': 0.046824801713228226, 'y': 0.0, 'z': -0.008513599634170532}","[0.0, 0.0, 0.0, 0.0, 0.0, 0.0, 0.0, 0.0, 0.0]","{'x': 0.06703764945268631, 'y': -0.08439560979604721, 'z': 11.183316230773926}","[0.0, 0.0, 0.0, 0.0, 0.0, 0.0, 0.0, 0.0, 0.0]"
2023/06/17 11:19:29.841082917,"{'stamp': {'secs': 1687011569, 'nsecs': 835035933}, 'frame_id': 'imu_link'}","{'x': -0.0062203677371144295, 'y': -0.0007200707914307714, 'z': -0.5144035220146179, 'w': 0.8575204610824585}","[0.0, 0.0, 0.0, 0.0, 0.0, 0.0, 0.0, 0.0, 0.0]","{'x': 0.0, 'y': 0.0, 'z': 0.0}","[0.0, 0.0, 0.0, 0.0, 0.0, 0.0, 0.0, 0.0, 0.0]","{'x': 0.09576806426048279, 'y': -0.09876082092523575, 'z': 10.999561309814453}","[0.0, 0.0, 0.0, 0.0, 0.0, 0.0, 0.0, 0.0, 0.0]"
2023/06/17 11:19:29.888187295,"{'stamp': {'secs': 1687011569, 'nsecs': 885015524}, 'frame_id': 'imu_link'}","{'x': -0.006530693732202053, 'y': 0.0014616852859035134, 'z': -0.514390766620636, 'w': 0.8575246930122375}","[0.0, 0.0, 0.0, 0.0, 0.0, 0.0, 0.0, 0.0, 0.0]","{'x': 0.0, 'y': 0.0, 'z': 0.0}","[0.0, 0.0, 0.0, 0.0, 0.0, 0.0, 0.0, 0.0, 0.0]","{'x': 0.03890577703714371, 'y': -0.1364694982767105, 'z': 11.009138107299805}","[0.0, 0.0, 0.0, 0.0, 0.0, 0.0, 0.0, 0.0, 0.0]"
2023/06/17 11:19:29.948451611,"{'stamp': {'secs': 1687011569, 'nsecs': 935048083}, 'frame_id': 'imu_link'}","{'x': -0.005999231711030006, 'y': 0.0005729175754822791, 'z': -0.5144003033638, 'w': 0.8575239777565002}","[0.0, 0.0, 0.0, 0.0, 0.0, 0.0, 0.0, 0.0, 0.0]","{'x': 0.0, 'y': 0.0, 'z': 0.0}","[0.0, 0.0, 0.0, 0.0, 0.0, 0.0, 0.0, 0.0, 0.0]","{'x': 0.05746084079146385, 'y': -0.11971008032560349, 'z': 11.04983901977539}","[0.0, 0.0, 0.0, 0.0, 0.0, 0.0, 0.0, 0.0, 0.0]"
2023/06/17 11:19:29.990482687,"{'stamp': {'secs': 1687011569, 'nsecs': 984996163}, 'frame_id': 'imu_link'}","{'x': -0.00565042020753026, 'y': 0.0006091879331506789, 'z': -0.5143998861312866, 'w': 0.8575266003608704}","[0.0, 0.0, 0.0, 0.0, 0.0, 0.0, 0.0, 0.0, 0.0]","{'x': 0.0, 'y': 0.0, 'z': 0.0}","[0.0, 0.0, 0.0, 0.0, 0.0, 0.0, 0.0, 0.0, 0.0]","{'x': 0.05147533491253853, 'y': -0.1149216815829277, 'z': 11.024101257324219}","[0.0, 0.0, 0.0, 0.0, 0.0, 0.0, 0.0, 0.0, 0.0]"
2023/06/17 11:19:30.39451309,"{'stamp': {'secs': 1687011570, 'nsecs': 34998986}, 'frame_id': 'imu_link'}","{'x': -0.007017802447080612, 'y': 0.0006663192179985344, 'z': -0.5143959522247314, 'w': 0.8575187921524048}","[0.0, 0.0, 0.0, 0.0, 0.0, 0.0, 0.0, 0.0, 0.0]","{'x': 0.0, 'y': 0.0, 'z': 0.0}","[0.0, 0.0, 0.0, 0.0, 0.0, 0.0, 0.0, 0.0, 0.0]","{'x': 0.06703764945268631, 'y': -0.14065934717655182, 'z': 11.055824279785156}","[0.0, 0.0, 0.0, 0.0, 0.0, 0.0, 0.0, 0.0, 0.0]"
2023/06/17 11:19:30.99328139,"{'stamp': {'secs': 1687011570, 'nsecs': 84984832}, 'frame_id': 'imu_link'}","{'x': -0.006341531407088041, 'y': 0.000682890706229955, 'z': -0.5143967270851135, 'w': 0.8575236797332764}","[0.0, 0.0, 0.0, 0.0, 0.0, 0.0, 0.0, 0.0, 0.0]","{'x': 0.0, 'y': 0.0, 'z': 0.0}","[0.0, 0.0, 0.0, 0.0, 0.0, 0.0, 0.0, 0.0, 0.0]","{'x': 0.06703764945268631, 'y': -0.13347674906253815, 'z': 11.004349708557129}","[0.0, 0.0, 0.0, 0.0, 0.0, 0.0, 0.0, 0.0, 0.0]"
2023/06/17 11:19:30.142098582,"{'stamp': {'secs': 1687011570, 'nsecs': 135033594}, 'frame_id': 'imu_link'}","{'x': -0.006107340566813946, 'y': 0.0007133075851015747, 'z': -0.5143964886665344, 'w': 0.8575254678726196}","[0.0, 0.0, 0.0, 0.0, 0.0, 0.0, 0.0, 0.0, 0.0]","{'x': 0.0, 'y': 0.0, 'z': 0.0}","[0.0, 0.0, 0.0, 0.0, 0.0, 0.0, 0.0, 0.0, 0.0]","{'x': 0.052073884755373, 'y': -0.12509703636169434, 'z': 11.040262222290039}","[0.0, 0.0, 0.0, 0.0, 0.0, 0.0, 0.0, 0.0, 0.0]"
2023/06/17 11:19:30.190156075,"{'stamp': {'secs': 1687011570, 'nsecs': 184955066}, 'frame_id': 'imu_link'}","{'x': -0.0073197390884160995, 'y': 0.0007059696945361793, 'z': -0.5143936276435852, 'w': 0.857517659664154}","[0.0, 0.0, 0.0, 0.0, 0.0, 0.0, 0.0, 0.0, 0.0]","{'x': -0.0063852001912891865, 'y': 0.0, 'z': 0.0}","[0.0, 0.0, 0.0, 0.0, 0.0, 0.0, 0.0, 0.0, 0.0]","{'x': 0.03531447425484657, 'y': -0.12749123573303223, 'z': 11.007342338562012}","[0.0, 0.0, 0.0, 0.0, 0.0, 0.0, 0.0, 0.0, 0.0]"
