time,header,orientation,orientation_covariance,angular_velocity,angular_velocity_covariance,linear_acceleration,linear_acceleration_covariance
2023/06/17 11:24:38.735174598,"{'stamp': {'secs': 1687011878, 'nsecs': 732664555}, 'frame_id': 'imu_link'}","{'x': -0.005074828863143921, 'y': 0.002012596931308508, 'z': -0.6415226459503174, 'w': 0.7670790553092957}","[0.0, 0.0, 0.0, 0.0, 0.0, 0.0, 0.0, 0.0, 0.0]","{'x': 0.0, 'y': 0.0, 'z': 0.0}","[0.0, 0.0, 0.0, 0.0, 0.0, 0.0, 0.0, 0.0, 0.0]","{'x': 0.04728548228740692, 'y': -0.132279634475708, 'z': 11.01632022857666}","[0.0, 0.0, 0.0, 0.0, 0.0, 0.0, 0.0, 0.0, 0.0]"
2023/06/17 11:24:38.795751875,"{'stamp': {'secs': 1687011878, 'nsecs': 782668954}, 'frame_id': 'imu_link'}","{'x': -0.005674075335264206, 'y': 0.0012719281949102879, 'z': -0.6415258646011353, 'w': 0.7670738101005554}","[0.0, 0.0, 0.0, 0.0, 0.0, 0.0, 0.0, 0.0, 0.0]","{'x': 0.0, 'y': 0.0, 'z': 0.0}","[0.0, 0.0, 0.0, 0.0, 0.0, 0.0, 0.0, 0.0, 0.0]","{'x': 0.05686229094862938, 'y': -0.11372458189725876, 'z': 10.99896240234375}","[0.0, 0.0, 0.0, 0.0, 0.0, 0.0, 0.0, 0.0, 0.0]"
2023/06/17 11:24:38.838641873,"{'stamp': {'secs': 1687011878, 'nsecs': 832732729}, 'frame_id': 'imu_link'}","{'x': -0.004624559078365564, 'y': 0.002051968825981021, 'z': -0.6415252089500427, 'w': 0.7670796513557434}","[0.0, 0.0, 0.0, 0.0, 0.0, 0.0, 0.0, 0.0, 0.0]","{'x': 0.0, 'y': 0.0, 'z': 0.0}","[0.0, 0.0, 0.0, 0.0, 0.0, 0.0, 0.0, 0.0, 0.0]","{'x': 0.040701426565647125, 'y': -0.0999579206109047, 'z': 11.035473823547363}","[0.0, 0.0, 0.0, 0.0, 0.0, 0.0, 0.0, 0.0, 0.0]"
2023/06/17 11:24:38.888112941,"{'stamp': {'secs': 1687011878, 'nsecs': 882702753}, 'frame_id': 'imu_link'}","{'x': -0.0058595966547727585, 'y': 0.0016125277616083622, 'z': -0.6415252685546875, 'w': 0.7670721411705017}","[0.0, 0.0, 0.0, 0.0, 0.0, 0.0, 0.0, 0.0, 0.0]","{'x': 0.0, 'y': 0.0, 'z': 0.0}","[0.0, 0.0, 0.0, 0.0, 0.0, 0.0, 0.0, 0.0, 0.0]","{'x': 0.05626373738050461, 'y': -0.13527239859104156, 'z': 10.98399829864502}","[0.0, 0.0, 0.0, 0.0, 0.0, 0.0, 0.0, 0.0, 0.0]"
2023/06/17 11:24:38.944554557,"{'stamp': {'secs': 1687011878, 'nsecs': 932664028}, 'frame_id': 'imu_link'}","{'x': -0.005287459120154381, 'y': 0.0015635245945304632, 'z': -0.6415260434150696, 'w': 0.7670757174491882}","[0.0, 0.0, 0.0, 0.0, 0.0, 0.0, 0.0, 0.0, 0.0]","{'x': 0.0, 'y': 0.0, 'z': 0.0}","[0.0, 0.0, 0.0, 0.0, 0.0, 0.0, 0.0, 0.0, 0.0]","{'x': 0.046088382601737976, 'y': -0.10773907601833344, 'z': 11.036072731018066}","[0.0, 0.0, 0.0, 0.0, 0.0, 0.0, 0.0, 0.0, 0.0]"
2023/06/17 11:24:38.987568461,"{'stamp': {'secs': 1687011878, 'nsecs': 982683323}, 'frame_id': 'imu_link'}","{'x': -0.005130307283252478, 'y': 0.0013620170066133142, 'z': -0.6415271162986755, 'w': 0.7670763731002808}","[0.0, 0.0, 0.0, 0.0, 0.0, 0.0, 0.0, 0.0, 0.0]","{'x': 0.0, 'y': 0.0, 'z': 0.0}","[0.0, 0.0, 0.0, 0.0, 0.0, 0.0, 0.0, 0.0, 0.0]","{'x': 0.07062894850969315, 'y': -0.0933738648891449, 'z': 11.012728691101074}","[0.0, 0.0, 0.0, 0.0, 0.0, 0.0, 0.0, 0.0, 0.0]"
2023/06/17 11:24:39.36859947,"{'stamp': {'secs': 1687011879, 'nsecs': 32654858}, 'frame_id': 'imu_link'}","{'x': -0.005887797102332115, 'y': 0.0018034264212474227, 'z': -0.6415235996246338, 'w': 0.7670730948448181}","[0.0, 0.0, 0.0, 0.0, 0.0, 0.0, 0.0, 0.0, 0.0]","{'x': 0.0, 'y': 0.0, 'z': 0.0}","[0.0, 0.0, 0.0, 0.0, 0.0, 0.0, 0.0, 0.0, 0.0]","{'x': 0.03172317147254944, 'y': -0.11911153048276901, 'z': 11.034875869750977}","[0.0, 0.0, 0.0, 0.0, 0.0, 0.0, 0.0, 0.0, 0.0]"
2023/06/17 11:24:39.91185268,"{'stamp': {'secs': 1687011879, 'nsecs': 82675872}, 'frame_id': 'imu_link'}","{'x': -0.00671680411323905, 'y': 0.00010145941632799804, 'z': -0.6415289044380188, 'w': 0.7670637965202332}","[0.0, 0.0, 0.0, 0.0, 0.0, 0.0, 0.0, 0.0, 0.0]","{'x': 0.0, 'y': 0.0, 'z': 0.0}","[0.0, 0.0, 0.0, 0.0, 0.0, 0.0, 0.0, 0.0, 0.0]","{'x': 0.05686229094862938, 'y': -0.12030863016843796, 'z': 11.018714904785156}","[0.0, 0.0, 0.0, 0.0, 0.0, 0.0, 0.0, 0.0, 0.0]"
2023/06/17 11:24:39.136450935,"{'stamp': {'secs': 1687011879, 'nsecs': 132641626}, 'frame_id': 'imu_link'}","{'x': -0.004980612080544233, 'y': 0.0025780268479138613, 'z': -0.6415197849273682, 'w': 0.7670804262161255}","[0.0, 0.0, 0.0, 0.0, 0.0, 0.0, 0.0, 0.0, 0.0]","{'x': 0.0, 'y': 0.0, 'z': 0.0}","[0.0, 0.0, 0.0, 0.0, 0.0, 0.0, 0.0, 0.0, 0.0]","{'x': 0.025737667456269264, 'y': -0.12030863016843796, 'z': 11.00015926361084}","[0.0, 0.0, 0.0, 0.0, 0.0, 0.0, 0.0, 0.0, 0.0]"
2023/06/17 11:24:39.196783110,"{'stamp': {'secs': 1687011879, 'nsecs': 182687901}, 'frame_id': 'imu_link'}","{'x': -0.005267948843538761, 'y': 0.0014176167314872146, 'z': -0.641524612903595, 'w': 0.7670773863792419}","[0.0, 0.0, 0.0, 0.0, 0.0, 0.0, 0.0, 0.0, 0.0]","{'x': 0.0, 'y': 0.0, 'z': 0.0}","[0.0, 0.0, 0.0, 0.0, 0.0, 0.0, 0.0, 0.0, 0.0]","{'x': 0.05027823522686958, 'y': -0.10953472554683685, 'z': 11.013327598571777}","[0.0, 0.0, 0.0, 0.0, 0.0, 0.0, 0.0, 0.0, 0.0]"
2023/06/17 11:24:39.238685821,"{'stamp': {'secs': 1687011879, 'nsecs': 232741103}, 'frame_id': 'imu_link'}","{'x': -0.004994996823370457, 'y': 0.0014121800195425749, 'z': -0.6415257453918457, 'w': 0.7670783996582031}","[0.0, 0.0, 0.0, 0.0, 0.0, 0.0, 0.0, 0.0, 0.0]","{'x': 0.0, 'y': 0.0, 'z': 0.0}","[0.0, 0.0, 0.0, 0.0, 0.0, 0.0, 0.0, 0.0, 0.0]","{'x': 0.04489128291606903, 'y': -0.10594342648983002, 'z': 10.99776554107666}","[0.0, 0.0, 0.0, 0.0, 0.0, 0.0, 0.0, 0.0, 0.0]"
2023/06/17 11:24:39.285249400,"{'stamp': {'secs': 1687011879, 'nsecs': 282625816}, 'frame_id': 'imu_link'}","{'x': -0.0070870909839868546, 'y': 0.001463435241021216, 'z': -0.6415210366249084, 'w': 0.767065703868866}","[0.0, 0.0, 0.0, 0.0, 0.0, 0.0, 0.0, 0.0, 0.0]","{'x': 0.0, 'y': 0.0, 'z': 0.0}","[0.0, 0.0, 0.0, 0.0, 0.0, 0.0, 0.0, 0.0, 0.0]","{'x': 0.07122749835252762, 'y': -0.12210428714752197, 'z': 11.007940292358398}","[0.0, 0.0, 0.0, 0.0, 0.0, 0.0, 0.0, 0.0, 0.0]"
2023/06/17 11:24:39.343177989,"{'stamp': {'secs': 1687011879, 'nsecs': 332604434}, 'frame_id': 'imu_link'}","{'x': -0.005108348559588194, 'y': 0.001693716156296432, 'z': -0.6415263414382935, 'w': 0.7670764923095703}","[0.0, 0.0, 0.0, 0.0, 0.0, 0.0, 0.0, 0.0, 0.0]","{'x': 0.0, 'y': 0.0, 'z': 0.0}","[0.0, 0.0, 0.0, 0.0, 0.0, 0.0, 0.0, 0.0, 0.0]","{'x': 0.03232172131538391, 'y': -0.12629413604736328, 'z': 11.007342338562012}","[0.0, 0.0, 0.0, 0.0, 0.0, 0.0, 0.0, 0.0, 0.0]"
2023/06/17 11:24:39.386158925,"{'stamp': {'secs': 1687011879, 'nsecs': 382625240}, 'frame_id': 'imu_link'}","{'x': -0.005362164694815874, 'y': 0.0024134793784469366, 'z': -0.6415213942527771, 'w': 0.7670770287513733}","[0.0, 0.0, 0.0, 0.0, 0.0, 0.0, 0.0, 0.0, 0.0]","{'x': 0.0, 'y': 0.0, 'z': 0.0}","[0.0, 0.0, 0.0, 0.0, 0.0, 0.0, 0.0, 0.0, 0.0]","{'x': 0.03711012750864029, 'y': -0.12509703636169434, 'z': 11.001955032348633}","[0.0, 0.0, 0.0, 0.0, 0.0, 0.0, 0.0, 0.0, 0.0]"
2023/06/17 11:24:39.446680578,"{'stamp': {'secs': 1687011879, 'nsecs': 432710786}, 'frame_id': 'imu_link'}","{'x': -0.005989205092191696, 'y': 0.0017931039910763502, 'z': -0.6415240168571472, 'w': 0.7670719623565674}","[0.0, 0.0, 0.0, 0.0, 0.0, 0.0, 0.0, 0.0, 0.0]","{'x': 0.0, 'y': 0.0, 'z': 0.0}","[0.0, 0.0, 0.0, 0.0, 0.0, 0.0, 0.0, 0.0, 0.0]","{'x': 0.03890577703714371, 'y': -0.12030863016843796, 'z': 11.00015926361084}","[0.0, 0.0, 0.0, 0.0, 0.0, 0.0, 0.0, 0.0, 0.0]"
2023/06/17 11:24:39.489652556,"{'stamp': {'secs': 1687011879, 'nsecs': 482607009}, 'frame_id': 'imu_link'}","{'x': -0.005531981121748686, 'y': 0.0018911787774413824, 'z': -0.6415238380432129, 'w': 0.7670753002166748}","[0.0, 0.0, 0.0, 0.0, 0.0, 0.0, 0.0, 0.0, 0.0]","{'x': 0.0, 'y': 0.0, 'z': 0.0}","[0.0, 0.0, 0.0, 0.0, 0.0, 0.0, 0.0, 0.0, 0.0]","{'x': 0.04668693244457245, 'y': -0.12090718746185303, 'z': 11.024101257324219}","[0.0, 0.0, 0.0, 0.0, 0.0, 0.0, 0.0, 0.0, 0.0]"
2023/06/17 11:24:39.535101191,"{'stamp': {'secs': 1687011879, 'nsecs': 532628284}, 'frame_id': 'imu_link'}","{'x': -0.005218422971665859, 'y': 0.0018183686770498753, 'z': -0.6415254473686218, 'w': 0.767076313495636}","[0.0, 0.0, 0.0, 0.0, 0.0, 0.0, 0.0, 0.0, 0.0]","{'x': 0.0, 'y': 0.0, 'z': 0.0}","[0.0, 0.0, 0.0, 0.0, 0.0, 0.0, 0.0, 0.0, 0.0]","{'x': 0.04848258197307587, 'y': -0.1149216815829277, 'z': 11.016919136047363}","[0.0, 0.0, 0.0, 0.0, 0.0, 0.0, 0.0, 0.0, 0.0]"
2023/06/17 11:24:39.591898847,"{'stamp': {'secs': 1687011879, 'nsecs': 582622267}, 'frame_id': 'imu_link'}","{'x': -0.004918656311929226, 'y': 0.0017412855522707105, 'z': -0.6415265202522278, 'w': 0.7670775651931763}","[0.0, 0.0, 0.0, 0.0, 0.0, 0.0, 0.0, 0.0, 0.0]","{'x': 0.0, 'y': 0.0, 'z': 0.0}","[0.0, 0.0, 0.0, 0.0, 0.0, 0.0, 0.0, 0.0, 0.0]","{'x': 0.05985504016280174, 'y': -0.10654197633266449, 'z': 11.021108627319336}","[0.0, 0.0, 0.0, 0.0, 0.0, 0.0, 0.0, 0.0, 0.0]"
2023/06/17 11:24:39.636127175,"{'stamp': {'secs': 1687011879, 'nsecs': 632655156}, 'frame_id': 'imu_link'}","{'x': -0.005644058343023062, 'y': 0.0002964099985547364, 'z': -0.6415315866470337, 'w': 0.7670700550079346}","[0.0, 0.0, 0.0, 0.0, 0.0, 0.0, 0.0, 0.0, 0.0]","{'x': 0.0, 'y': 0.0, 'z': 0.0}","[0.0, 0.0, 0.0, 0.0, 0.0, 0.0, 0.0, 0.0, 0.0]","{'x': 0.06763619929552078, 'y': -0.0975637212395668, 'z': 11.025299072265625}","[0.0, 0.0, 0.0, 0.0, 0.0, 0.0, 0.0, 0.0, 0.0]"
2023/06/17 11:24:39.687819537,"{'stamp': {'secs': 1687011879, 'nsecs': 682638410}, 'frame_id': 'imu_link'}","{'x': -0.005486991256475449, 'y': 0.0010017371969297528, 'z': -0.6415296792984009, 'w': 0.7670723795890808}","[0.0, 0.0, 0.0, 0.0, 0.0, 0.0, 0.0, 0.0, 0.0]","{'x': 0.0, 'y': 0.0, 'z': 0.0}","[0.0, 0.0, 0.0, 0.0, 0.0, 0.0, 0.0, 0.0, 0.0]","{'x': 0.046088382601737976, 'y': -0.11432313174009323, 'z': 10.985794067382812}","[0.0, 0.0, 0.0, 0.0, 0.0, 0.0, 0.0, 0.0, 0.0]"
2023/06/17 11:24:39.744442194,"{'stamp': {'secs': 1687011879, 'nsecs': 732628435}, 'frame_id': 'imu_link'}","{'x': -0.005358539521694183, 'y': 0.0012935352278873324, 'z': -0.6415287852287292, 'w': 0.7670734524726868}","[0.0, 0.0, 0.0, 0.0, 0.0, 0.0, 0.0, 0.0, 0.0]","{'x': 0.0, 'y': 0.0, 'z': 0.0}","[0.0, 0.0, 0.0, 0.0, 0.0, 0.0, 0.0, 0.0, 0.0]","{'x': 0.050876785069704056, 'y': -0.11312603205442429, 'z': 11.019911766052246}","[0.0, 0.0, 0.0, 0.0, 0.0, 0.0, 0.0, 0.0, 0.0]"
2023/06/17 11:24:39.784957722,"{'stamp': {'secs': 1687011879, 'nsecs': 782604137}, 'frame_id': 'imu_link'}","{'x': -0.0062472522258758545, 'y': 0.0009180192719213665, 'z': -0.6415295004844666, 'w': 0.7670667171478271}","[0.0, 0.0, 0.0, 0.0, 0.0, 0.0, 0.0, 0.0, 0.0]","{'x': 0.0, 'y': 0.0, 'z': 0.0}","[0.0, 0.0, 0.0, 0.0, 0.0, 0.0, 0.0, 0.0, 0.0]","{'x': 0.0652419924736023, 'y': -0.08858545869588852, 'z': 11.011531829833984}","[0.0, 0.0, 0.0, 0.0, 0.0, 0.0, 0.0, 0.0, 0.0]"
2023/06/17 11:24:39.835596026,"{'stamp': {'secs': 1687011879, 'nsecs': 832626297}, 'frame_id': 'imu_link'}","{'x': -0.006468237843364477, 'y': 0.0012390296906232834, 'z': -0.6415272355079651, 'w': 0.7670663595199585}","[0.0, 0.0, 0.0, 0.0, 0.0, 0.0, 0.0, 0.0, 0.0]","{'x': 0.0, 'y': 0.0, 'z': 0.0}","[0.0, 0.0, 0.0, 0.0, 0.0, 0.0, 0.0, 0.0, 0.0]","{'x': 0.055665187537670135, 'y': -0.13168108463287354, 'z': 11.03128433227539}","[0.0, 0.0, 0.0, 0.0, 0.0, 0.0, 0.0, 0.0, 0.0]"
2023/06/17 11:24:39.891133322,"{'stamp': {'secs': 1687011879, 'nsecs': 882608302}, 'frame_id': 'imu_link'}","{'x': -0.005001610144972801, 'y': 0.0018225928070023656, 'z': -0.6415278911590576, 'w': 0.7670755386352539}","[0.0, 0.0, 0.0, 0.0, 0.0, 0.0, 0.0, 0.0, 0.0]","{'x': 0.0, 'y': 0.0, 'z': 0.0}","[0.0, 0.0, 0.0, 0.0, 0.0, 0.0, 0.0, 0.0, 0.0]","{'x': 0.055665187537670135, 'y': -0.10654197633266449, 'z': 11.031882286071777}","[0.0, 0.0, 0.0, 0.0, 0.0, 0.0, 0.0, 0.0, 0.0]"
2023/06/17 11:24:39.937582371,"{'stamp': {'secs': 1687011879, 'nsecs': 932606295}, 'frame_id': 'imu_link'}","{'x': -0.005857665557414293, 'y': 0.0023624757304787636, 'z': -0.6415222883224487, 'w': 0.7670727968215942}","[0.0, 0.0, 0.0, 0.0, 0.0, 0.0, 0.0, 0.0, 0.0]","{'x': 0.0, 'y': 0.0, 'z': 0.0}","[0.0, 0.0, 0.0, 0.0, 0.0, 0.0, 0.0, 0.0, 0.0]","{'x': 0.04728548228740692, 'y': -0.13706804811954498, 'z': 10.992378234863281}","[0.0, 0.0, 0.0, 0.0, 0.0, 0.0, 0.0, 0.0, 0.0]"
2023/06/17 11:24:39.985591986,"{'stamp': {'secs': 1687011879, 'nsecs': 982608508}, 'frame_id': 'imu_link'}","{'x': -0.004698705393821001, 'y': 0.001638272893615067, 'z': -0.6415285468101501, 'w': 0.7670774459838867}","[0.0, 0.0, 0.0, 0.0, 0.0, 0.0, 0.0, 0.0, 0.0]","{'x': 0.0, 'y': 0.0, 'z': 0.0}","[0.0, 0.0, 0.0, 0.0, 0.0, 0.0, 0.0, 0.0, 0.0]","{'x': 0.041299980133771896, 'y': -0.10055647045373917, 'z': 11.019911766052246}","[0.0, 0.0, 0.0, 0.0, 0.0, 0.0, 0.0, 0.0, 0.0]"
2023/06/17 11:24:40.41076106,"{'stamp': {'secs': 1687011880, 'nsecs': 32641085}, 'frame_id': 'imu_link'}","{'x': -0.005392518360167742, 'y': 0.0021254210732877254, 'z': -0.6415241360664368, 'w': 0.76707524061203}","[0.0, 0.0, 0.0, 0.0, 0.0, 0.0, 0.0, 0.0, 0.0]","{'x': 0.0, 'y': 0.0, 'z': 0.0}","[0.0, 0.0, 0.0, 0.0, 0.0, 0.0, 0.0, 0.0, 0.0]","{'x': 0.040701426565647125, 'y': -0.12030863016843796, 'z': 11.004947662353516}","[0.0, 0.0, 0.0, 0.0, 0.0, 0.0, 0.0, 0.0, 0.0]"
2023/06/17 11:24:40.85244798,"{'stamp': {'secs': 1687011880, 'nsecs': 82660016}, 'frame_id': 'imu_link'}","{'x': -0.004539030138403177, 'y': 0.002410473767668009, 'z': -0.6415234804153442, 'w': 0.767080545425415}","[0.0, 0.0, 0.0, 0.0, 0.0, 0.0, 0.0, 0.0, 0.0]","{'x': 0.0, 'y': 0.0, 'z': 0.0}","[0.0, 0.0, 0.0, 0.0, 0.0, 0.0, 0.0, 0.0, 0.0]","{'x': 0.023343466222286224, 'y': -0.11013327538967133, 'z': 11.021108627319336}","[0.0, 0.0, 0.0, 0.0, 0.0, 0.0, 0.0, 0.0, 0.0]"
2023/06/17 11:24:40.143110524,"{'stamp': {'secs': 1687011880, 'nsecs': 132671500}, 'frame_id': 'imu_link'}","{'x': -0.005775013472884893, 'y': 0.0014355238527059555, 'z': -0.6415247917175293, 'w': 0.7670736312866211}","[0.0, 0.0, 0.0, 0.0, 0.0, 0.0, 0.0, 0.0, 0.0]","{'x': 0.0, 'y': 0.0, 'z': 0.0}","[0.0, 0.0, 0.0, 0.0, 0.0, 0.0, 0.0, 0.0, 0.0]","{'x': 0.05506663769483566, 'y': -0.11911153048276901, 'z': 11.03906536102295}","[0.0, 0.0, 0.0, 0.0, 0.0, 0.0, 0.0, 0.0, 0.0]"
2023/06/17 11:24:40.186339481,"{'stamp': {'secs': 1687011880, 'nsecs': 182644182}, 'frame_id': 'imu_link'}","{'x': -0.005426724441349506, 'y': 0.0008916291408240795, 'z': -0.641527533531189, 'w': 0.767074704170227}","[0.0, 0.0, 0.0, 0.0, 0.0, 0.0, 0.0, 0.0, 0.0]","{'x': 0.0, 'y': 0.0, 'z': 0.0}","[0.0, 0.0, 0.0, 0.0, 0.0, 0.0, 0.0, 0.0, 0.0]","{'x': 0.06584054231643677, 'y': -0.10953472554683685, 'z': 11.012728691101074}","[0.0, 0.0, 0.0, 0.0, 0.0, 0.0, 0.0, 0.0, 0.0]"
2023/06/17 11:24:40.237622001,"{'stamp': {'secs': 1687011880, 'nsecs': 232615822}, 'frame_id': 'imu_link'}","{'x': -0.005819461774080992, 'y': 0.0017763409996405244, 'z': -0.6415223479270935, 'w': 0.7670746445655823}","[0.0, 0.0, 0.0, 0.0, 0.0, 0.0, 0.0, 0.0, 0.0]","{'x': 0.0, 'y': 0.0, 'z': 0.0}","[0.0, 0.0, 0.0, 0.0, 0.0, 0.0, 0.0, 0.0, 0.0]","{'x': 0.05686229094862938, 'y': -0.11971008032560349, 'z': 11.03367805480957}","[0.0, 0.0, 0.0, 0.0, 0.0, 0.0, 0.0, 0.0, 0.0]"
2023/06/17 11:24:40.292184197,"{'stamp': {'secs': 1687011880, 'nsecs': 282614753}, 'frame_id': 'imu_link'}","{'x': -0.006526119541376829, 'y': 0.002024955814704299, 'z': -0.6415188908576965, 'w': 0.7670711874961853}","[0.0, 0.0, 0.0, 0.0, 0.0, 0.0, 0.0, 0.0, 0.0]","{'x': 0.0, 'y': 0.0, 'z': 0.0}","[0.0, 0.0, 0.0, 0.0, 0.0, 0.0, 0.0, 0.0, 0.0]","{'x': 0.040701426565647125, 'y': -0.1280897855758667, 'z': 11.003750801086426}","[0.0, 0.0, 0.0, 0.0, 0.0, 0.0, 0.0, 0.0, 0.0]"
2023/06/17 11:24:40.334919458,"{'stamp': {'secs': 1687011880, 'nsecs': 332624726}, 'frame_id': 'imu_link'}","{'x': -0.004296247847378254, 'y': 0.001604424323886633, 'z': -0.6415260434150696, 'w': 0.7670818567276001}","[0.0, 0.0, 0.0, 0.0, 0.0, 0.0, 0.0, 0.0, 0.0]","{'x': 0.0, 'y': 0.0, 'z': 0.0}","[0.0, 0.0, 0.0, 0.0, 0.0, 0.0, 0.0, 0.0, 0.0]","{'x': 0.03711012750864029, 'y': -0.08798690885305405, 'z': 11.036072731018066}","[0.0, 0.0, 0.0, 0.0, 0.0, 0.0, 0.0, 0.0, 0.0]"
2023/06/17 11:24:40.386829736,"{'stamp': {'secs': 1687011880, 'nsecs': 382607512}, 'frame_id': 'imu_link'}","{'x': -0.005830543581396341, 'y': 0.0024489345960319042, 'z': -0.64151930809021, 'w': 0.7670751810073853}","[0.0, 0.0, 0.0, 0.0, 0.0, 0.0, 0.0, 0.0, 0.0]","{'x': 0.0, 'y': 0.0, 'z': 0.0}","[0.0, 0.0, 0.0, 0.0, 0.0, 0.0, 0.0, 0.0, 0.0]","{'x': 0.05626373738050461, 'y': -0.12749123573303223, 'z': 11.009138107299805}","[0.0, 0.0, 0.0, 0.0, 0.0, 0.0, 0.0, 0.0, 0.0]"
2023/06/17 11:24:40.442061045,"{'stamp': {'secs': 1687011880, 'nsecs': 432624621}, 'frame_id': 'imu_link'}","{'x': -0.005432990845292807, 'y': 0.0013582613319158554, 'z': -0.6415255665779114, 'w': 0.7670755386352539}","[0.0, 0.0, 0.0, 0.0, 0.0, 0.0, 0.0, 0.0, 0.0]","{'x': 0.0, 'y': 0.0, 'z': 0.0}","[0.0, 0.0, 0.0, 0.0, 0.0, 0.0, 0.0, 0.0, 0.0]","{'x': 0.06165069341659546, 'y': -0.11611878126859665, 'z': 11.036072731018066}","[0.0, 0.0, 0.0, 0.0, 0.0, 0.0, 0.0, 0.0, 0.0]"
2023/06/17 11:24:40.486797079,"{'stamp': {'secs': 1687011880, 'nsecs': 482628761}, 'frame_id': 'imu_link'}","{'x': -0.0057687703520059586, 'y': 0.0016606766730546951, 'z': -0.6415229439735413, 'w': 0.7670749425888062}","[0.0, 0.0, 0.0, 0.0, 0.0, 0.0, 0.0, 0.0, 0.0]","{'x': 0.0, 'y': 0.0, 'z': 0.0}","[0.0, 0.0, 0.0, 0.0, 0.0, 0.0, 0.0, 0.0, 0.0]","{'x': 0.04668693244457245, 'y': -0.12330138683319092, 'z': 11.028889656066895}","[0.0, 0.0, 0.0, 0.0, 0.0, 0.0, 0.0, 0.0, 0.0]"
2023/06/17 11:24:40.546630454,"{'stamp': {'secs': 1687011880, 'nsecs': 532624620}, 'frame_id': 'imu_link'}","{'x': -0.004788138438016176, 'y': 0.0013969562714919448, 'z': -0.6415265202522278, 'w': 0.7670789957046509}","[0.0, 0.0, 0.0, 0.0, 0.0, 0.0, 0.0, 0.0, 0.0]","{'x': 0.0, 'y': 0.0, 'z': 0.0}","[0.0, 0.0, 0.0, 0.0, 0.0, 0.0, 0.0, 0.0, 0.0]","{'x': 0.05147533491253853, 'y': -0.10534487664699554, 'z': 10.991181373596191}","[0.0, 0.0, 0.0, 0.0, 0.0, 0.0, 0.0, 0.0, 0.0]"
2023/06/17 11:24:40.590991489,"{'stamp': {'secs': 1687011880, 'nsecs': 582664488}, 'frame_id': 'imu_link'}","{'x': -0.004733292385935783, 'y': 0.001662400201894343, 'z': -0.6415249109268188, 'w': 0.7670801877975464}","[0.0, 0.0, 0.0, 0.0, 0.0, 0.0, 0.0, 0.0, 0.0]","{'x': 0.0, 'y': 0.0, 'z': 0.0}","[0.0, 0.0, 0.0, 0.0, 0.0, 0.0, 0.0, 0.0, 0.0]","{'x': 0.03890577703714371, 'y': -0.10354921966791153, 'z': 11.040861129760742}","[0.0, 0.0, 0.0, 0.0, 0.0, 0.0, 0.0, 0.0, 0.0]"
2023/06/17 11:24:40.634935287,"{'stamp': {'secs': 1687011880, 'nsecs': 632615660}, 'frame_id': 'imu_link'}","{'x': -0.006032236386090517, 'y': 0.0021755709312856197, 'z': -0.6415197849273682, 'w': 0.7670741081237793}","[0.0, 0.0, 0.0, 0.0, 0.0, 0.0, 0.0, 0.0, 0.0]","{'x': 0.0, 'y': 0.0, 'z': 0.0}","[0.0, 0.0, 0.0, 0.0, 0.0, 0.0, 0.0, 0.0, 0.0]","{'x': 0.05267243832349777, 'y': -0.12389993667602539, 'z': 11.009138107299805}","[0.0, 0.0, 0.0, 0.0, 0.0, 0.0, 0.0, 0.0, 0.0]"
2023/06/17 11:24:40.695494492,"{'stamp': {'secs': 1687011880, 'nsecs': 682661570}, 'frame_id': 'imu_link'}","{'x': -0.005534323863685131, 'y': 0.0019365174230188131, 'z': -0.6415218710899353, 'w': 0.7670767903327942}","[0.0, 0.0, 0.0, 0.0, 0.0, 0.0, 0.0, 0.0, 0.0]","{'x': 0.0, 'y': 0.0, 'z': 0.0}","[0.0, 0.0, 0.0, 0.0, 0.0, 0.0, 0.0, 0.0, 0.0]","{'x': 0.060453593730926514, 'y': -0.11432313174009323, 'z': 11.035473823547363}","[0.0, 0.0, 0.0, 0.0, 0.0, 0.0, 0.0, 0.0, 0.0]"
2023/06/17 11:24:40.739548498,"{'stamp': {'secs': 1687011880, 'nsecs': 732592898}, 'frame_id': 'imu_link'}","{'x': -0.005796059966087341, 'y': 0.002086582826450467, 'z': -0.6415209174156189, 'w': 0.7670751810073853}","[0.0, 0.0, 0.0, 0.0, 0.0, 0.0, 0.0, 0.0, 0.0]","{'x': 0.0, 'y': 0.0, 'z': 0.0}","[0.0, 0.0, 0.0, 0.0, 0.0, 0.0, 0.0, 0.0, 0.0]","{'x': 0.046088382601737976, 'y': -0.1280897855758667, 'z': 11.05522632598877}","[0.0, 0.0, 0.0, 0.0, 0.0, 0.0, 0.0, 0.0, 0.0]"
2023/06/17 11:24:40.787780248,"{'stamp': {'secs': 1687011880, 'nsecs': 782601465}, 'frame_id': 'imu_link'}","{'x': -0.0044605000875890255, 'y': 0.002404766157269478, 'z': -0.6415214538574219, 'w': 0.7670827507972717}","[0.0, 0.0, 0.0, 0.0, 0.0, 0.0, 0.0, 0.0, 0.0]","{'x': 0.0, 'y': 0.0, 'z': 0.0}","[0.0, 0.0, 0.0, 0.0, 0.0, 0.0, 0.0, 0.0, 0.0]","{'x': 0.050876785069704056, 'y': -0.0999579206109047, 'z': 11.018115997314453}","[0.0, 0.0, 0.0, 0.0, 0.0, 0.0, 0.0, 0.0, 0.0]"
2023/06/17 11:24:40.837007933,"{'stamp': {'secs': 1687011880, 'nsecs': 832647428}, 'frame_id': 'imu_link'}","{'x': -0.005212271586060524, 'y': 0.0020748418755829334, 'z': -0.6415207982063293, 'w': 0.7670794725418091}","[0.0, 0.0, 0.0, 0.0, 0.0, 0.0, 0.0, 0.0, 0.0]","{'x': 0.0, 'y': 0.0, 'z': 0.0}","[0.0, 0.0, 0.0, 0.0, 0.0, 0.0, 0.0, 0.0, 0.0]","{'x': 0.05386953800916672, 'y': -0.09277531504631042, 'z': 11.036670684814453}","[0.0, 0.0, 0.0, 0.0, 0.0, 0.0, 0.0, 0.0, 0.0]"
2023/06/17 11:24:40.888739150,"{'stamp': {'secs': 1687011880, 'nsecs': 882575474}, 'frame_id': 'imu_link'}","{'x': -0.0056242612190544605, 'y': 0.002169037004932761, 'z': -0.6415181756019592, 'w': 0.7670786380767822}","[0.0, 0.0, 0.0, 0.0, 0.0, 0.0, 0.0, 0.0, 0.0]","{'x': 0.0, 'y': 0.0, 'z': 0.0}","[0.0, 0.0, 0.0, 0.0, 0.0, 0.0, 0.0, 0.0, 0.0]","{'x': 0.050876785069704056, 'y': -0.10055647045373917, 'z': 11.022305488586426}","[0.0, 0.0, 0.0, 0.0, 0.0, 0.0, 0.0, 0.0, 0.0]"
2023/06/17 11:24:40.936483610,"{'stamp': {'secs': 1687011880, 'nsecs': 932608885}, 'frame_id': 'imu_link'}","{'x': -0.0051999823190271854, 'y': 0.0006447265041060746, 'z': -0.6415258049964905, 'w': 0.7670780420303345}","[0.0, 0.0, 0.0, 0.0, 0.0, 0.0, 0.0, 0.0, 0.0]","{'x': 0.0, 'y': 0.0, 'z': 0.0}","[0.0, 0.0, 0.0, 0.0, 0.0, 0.0, 0.0, 0.0, 0.0]","{'x': 0.04429272934794426, 'y': -0.11791443079710007, 'z': 11.028889656066895}","[0.0, 0.0, 0.0, 0.0, 0.0, 0.0, 0.0, 0.0, 0.0]"
2023/06/17 11:24:40.997017399,"{'stamp': {'secs': 1687011880, 'nsecs': 982588389}, 'frame_id': 'imu_link'}","{'x': -0.005258643534034491, 'y': 0.0017049303278326988, 'z': -0.6415213346481323, 'w': 0.7670795917510986}","[0.0, 0.0, 0.0, 0.0, 0.0, 0.0, 0.0, 0.0, 0.0]","{'x': 0.0, 'y': 0.0, 'z': 0.0}","[0.0, 0.0, 0.0, 0.0, 0.0, 0.0, 0.0, 0.0, 0.0]","{'x': 0.05446808785200119, 'y': -0.1173158809542656, 'z': 11.047445297241211}","[0.0, 0.0, 0.0, 0.0, 0.0, 0.0, 0.0, 0.0, 0.0]"
2023/06/17 11:24:41.39864378,"{'stamp': {'secs': 1687011881, 'nsecs': 32603832}, 'frame_id': 'imu_link'}","{'x': -0.003878773655742407, 'y': 0.0006939967861399055, 'z': -0.6415280103683472, 'w': 0.7670837640762329}","[0.0, 0.0, 0.0, 0.0, 0.0, 0.0, 0.0, 0.0, 0.0]","{'x': 0.0, 'y': 0.0, 'z': 0.0}","[0.0, 0.0, 0.0, 0.0, 0.0, 0.0, 0.0, 0.0, 0.0]","{'x': 0.05626373738050461, 'y': -0.07841010391712189, 'z': 11.026495933532715}","[0.0, 0.0, 0.0, 0.0, 0.0, 0.0, 0.0, 0.0, 0.0]"
2023/06/17 11:24:41.85374420,"{'stamp': {'secs': 1687011881, 'nsecs': 82598389}, 'frame_id': 'imu_link'}","{'x': -0.0044500259682536125, 'y': 0.0007487805560231209, 'z': -0.6415279507637024, 'w': 0.7670808434486389}","[0.0, 0.0, 0.0, 0.0, 0.0, 0.0, 0.0, 0.0, 0.0]","{'x': 0.0, 'y': 0.0, 'z': 0.0}","[0.0, 0.0, 0.0, 0.0, 0.0, 0.0, 0.0, 0.0, 0.0]","{'x': 0.05985504016280174, 'y': -0.08918400853872299, 'z': 11.023503303527832}","[0.0, 0.0, 0.0, 0.0, 0.0, 0.0, 0.0, 0.0, 0.0]"
2023/06/17 11:24:41.135720382,"{'stamp': {'secs': 1687011881, 'nsecs': 132622790}, 'frame_id': 'imu_link'}","{'x': -0.0050743017345666885, 'y': 0.0013123456155881286, 'z': -0.6415248513221741, 'w': 0.767078697681427}","[0.0, 0.0, 0.0, 0.0, 0.0, 0.0, 0.0, 0.0, 0.0]","{'x': 0.0, 'y': 0.0, 'z': 0.0}","[0.0, 0.0, 0.0, 0.0, 0.0, 0.0, 0.0, 0.0, 0.0]","{'x': 0.0347159244120121, 'y': -0.10654197633266449, 'z': 11.018115997314453}","[0.0, 0.0, 0.0, 0.0, 0.0, 0.0, 0.0, 0.0, 0.0]"
2023/06/17 11:24:41.190338100,"{'stamp': {'secs': 1687011881, 'nsecs': 182624378}, 'frame_id': 'imu_link'}","{'x': -0.005506199784576893, 'y': 0.0012335184728726745, 'z': -0.6415241360664368, 'w': 0.7670763731002808}","[0.0, 0.0, 0.0, 0.0, 0.0, 0.0, 0.0, 0.0, 0.0]","{'x': 0.0, 'y': 0.0, 'z': 0.0}","[0.0, 0.0, 0.0, 0.0, 0.0, 0.0, 0.0, 0.0, 0.0]","{'x': 0.046088382601737976, 'y': -0.09935937076807022, 'z': 11.045050621032715}","[0.0, 0.0, 0.0, 0.0, 0.0, 0.0, 0.0, 0.0, 0.0]"
2023/06/17 11:24:41.236844961,"{'stamp': {'secs': 1687011881, 'nsecs': 232648987}, 'frame_id': 'imu_link'}","{'x': -0.00558375334367156, 'y': 0.0021219239570200443, 'z': -0.6415208578109741, 'w': 0.7670766711235046}","[0.0, 0.0, 0.0, 0.0, 0.0, 0.0, 0.0, 0.0, 0.0]","{'x': 0.0, 'y': 0.0, 'z': 0.0}","[0.0, 0.0, 0.0, 0.0, 0.0, 0.0, 0.0, 0.0, 0.0]","{'x': 0.05626373738050461, 'y': -0.12210428714752197, 'z': 11.019312858581543}","[0.0, 0.0, 0.0, 0.0, 0.0, 0.0, 0.0, 0.0, 0.0]"
2023/06/17 11:24:41.297187918,"{'stamp': {'secs': 1687011881, 'nsecs': 282614065}, 'frame_id': 'imu_link'}","{'x': -0.00589329469949007, 'y': 0.000855390855576843, 'z': -0.6415265202522278, 'w': 0.7670721411705017}","[0.0, 0.0, 0.0, 0.0, 0.0, 0.0, 0.0, 0.0, 0.0]","{'x': 0.0, 'y': 0.0, 'z': 0.0}","[0.0, 0.0, 0.0, 0.0, 0.0, 0.0, 0.0, 0.0, 0.0]","{'x': 0.03651157394051552, 'y': -0.10235211998224258, 'z': 11.019911766052246}","[0.0, 0.0, 0.0, 0.0, 0.0, 0.0, 0.0, 0.0, 0.0]"
2023/06/17 11:24:41.337294543,"{'stamp': {'secs': 1687011881, 'nsecs': 332613674}, 'frame_id': 'imu_link'}","{'x': -0.0058165439404547215, 'y': 0.0009343016427010298, 'z': -0.641526997089386, 'w': 0.7670721411705017}","[0.0, 0.0, 0.0, 0.0, 0.0, 0.0, 0.0, 0.0, 0.0]","{'x': 0.0, 'y': 0.0, 'z': 0.0}","[0.0, 0.0, 0.0, 0.0, 0.0, 0.0, 0.0, 0.0, 0.0]","{'x': 0.0586579404771328, 'y': -0.11312603205442429, 'z': 11.01632022857666}","[0.0, 0.0, 0.0, 0.0, 0.0, 0.0, 0.0, 0.0, 0.0]"
2023/06/17 11:24:41.386676081,"{'stamp': {'secs': 1687011881, 'nsecs': 382597763}, 'frame_id': 'imu_link'}","{'x': -0.005066220182925463, 'y': 0.0019673348870128393, 'z': -0.6415236592292786, 'w': 0.7670782804489136}","[0.0, 0.0, 0.0, 0.0, 0.0, 0.0, 0.0, 0.0, 0.0]","{'x': 0.0, 'y': 0.0, 'z': 0.0}","[0.0, 0.0, 0.0, 0.0, 0.0, 0.0, 0.0, 0.0, 0.0]","{'x': 0.03890577703714371, 'y': -0.10055647045373917, 'z': 11.009736061096191}","[0.0, 0.0, 0.0, 0.0, 0.0, 0.0, 0.0, 0.0, 0.0]"
2023/06/17 11:24:41.444808317,"{'stamp': {'secs': 1687011881, 'nsecs': 432683153}, 'frame_id': 'imu_link'}","{'x': -0.004758916795253754, 'y': 0.0014531469205394387, 'z': -0.6415272355079651, 'w': 0.7670784592628479}","[0.0, 0.0, 0.0, 0.0, 0.0, 0.0, 0.0, 0.0, 0.0]","{'x': 0.0, 'y': 0.0, 'z': 0.0}","[0.0, 0.0, 0.0, 0.0, 0.0, 0.0, 0.0, 0.0, 0.0]","{'x': 0.052073884755373, 'y': -0.10474631935358047, 'z': 11.019312858581543}","[0.0, 0.0, 0.0, 0.0, 0.0, 0.0, 0.0, 0.0, 0.0]"
2023/06/17 11:24:41.489096124,"{'stamp': {'secs': 1687011881, 'nsecs': 482687762}, 'frame_id': 'imu_link'}","{'x': -0.004900133702903986, 'y': 0.0017690988024696708, 'z': -0.6415250301361084, 'w': 0.7670786380767822}","[0.0, 0.0, 0.0, 0.0, 0.0, 0.0, 0.0, 0.0, 0.0]","{'x': 0.0, 'y': 0.0, 'z': 0.0}","[0.0, 0.0, 0.0, 0.0, 0.0, 0.0, 0.0, 0.0, 0.0]","{'x': 0.03890577703714371, 'y': -0.10594342648983002, 'z': 11.019911766052246}","[0.0, 0.0, 0.0, 0.0, 0.0, 0.0, 0.0, 0.0, 0.0]"
2023/06/17 11:24:41.536965793,"{'stamp': {'secs': 1687011881, 'nsecs': 532673100}, 'frame_id': 'imu_link'}","{'x': -0.004872417077422142, 'y': 0.0009895404800772667, 'z': -0.6415295004844666, 'w': 0.7670767903327942}","[0.0, 0.0, 0.0, 0.0, 0.0, 0.0, 0.0, 0.0, 0.0]","{'x': 0.0, 'y': 0.0, 'z': 0.0}","[0.0, 0.0, 0.0, 0.0, 0.0, 0.0, 0.0, 0.0, 0.0]","{'x': 0.058059390634298325, 'y': -0.10534487664699554, 'z': 11.022904396057129}","[0.0, 0.0, 0.0, 0.0, 0.0, 0.0, 0.0, 0.0, 0.0]"
2023/06/17 11:24:41.596192400,"{'stamp': {'secs': 1687011881, 'nsecs': 582613751}, 'frame_id': 'imu_link'}","{'x': -0.0050743031315505505, 'y': 0.0020478186197578907, 'z': -0.6415236592292786, 'w': 0.7670781016349792}","[0.0, 0.0, 0.0, 0.0, 0.0, 0.0, 0.0, 0.0, 0.0]","{'x': 0.0, 'y': 0.0, 'z': 0.0}","[0.0, 0.0, 0.0, 0.0, 0.0, 0.0, 0.0, 0.0, 0.0]","{'x': 0.04189852997660637, 'y': -0.1173158809542656, 'z': 11.043853759765625}","[0.0, 0.0, 0.0, 0.0, 0.0, 0.0, 0.0, 0.0, 0.0]"
2023/06/17 11:24:41.637659696,"{'stamp': {'secs': 1687011881, 'nsecs': 632601902}, 'frame_id': 'imu_link'}","{'x': -0.0053066955879330635, 'y': 0.0021186142694205046, 'z': -0.6415224671363831, 'w': 0.7670773267745972}","[0.0, 0.0, 0.0, 0.0, 0.0, 0.0, 0.0, 0.0, 0.0]","{'x': 0.0, 'y': 0.0, 'z': 0.0}","[0.0, 0.0, 0.0, 0.0, 0.0, 0.0, 0.0, 0.0, 0.0]","{'x': 0.04249707981944084, 'y': -0.11911153048276901, 'z': 11.018115997314453}","[0.0, 0.0, 0.0, 0.0, 0.0, 0.0, 0.0, 0.0, 0.0]"
2023/06/17 11:24:41.685957593,"{'stamp': {'secs': 1687011881, 'nsecs': 682641719}, 'frame_id': 'imu_link'}","{'x': -0.005233086179941893, 'y': 0.0013045002706348896, 'z': -0.6415271162986755, 'w': 0.7670757174491882}","[0.0, 0.0, 0.0, 0.0, 0.0, 0.0, 0.0, 0.0, 0.0]","{'x': 0.0, 'y': 0.0, 'z': 0.0}","[0.0, 0.0, 0.0, 0.0, 0.0, 0.0, 0.0, 0.0, 0.0]","{'x': 0.05027823522686958, 'y': -0.11252747476100922, 'z': 11.023503303527832}","[0.0, 0.0, 0.0, 0.0, 0.0, 0.0, 0.0, 0.0, 0.0]"
2023/06/17 11:24:41.742486189,"{'stamp': {'secs': 1687011881, 'nsecs': 732636172}, 'frame_id': 'imu_link'}","{'x': -0.005359690170735121, 'y': 0.002226640470325947, 'z': -0.6415210962295532, 'w': 0.7670778036117554}","[0.0, 0.0, 0.0, 0.0, 0.0, 0.0, 0.0, 0.0, 0.0]","{'x': 0.0, 'y': 0.0, 'z': 0.0}","[0.0, 0.0, 0.0, 0.0, 0.0, 0.0, 0.0, 0.0, 0.0]","{'x': 0.03770867735147476, 'y': -0.11851298063993454, 'z': 10.983400344848633}","[0.0, 0.0, 0.0, 0.0, 0.0, 0.0, 0.0, 0.0, 0.0]"
2023/06/17 11:24:41.786631652,"{'stamp': {'secs': 1687011881, 'nsecs': 782626875}, 'frame_id': 'imu_link'}","{'x': -0.005592687986791134, 'y': 0.0021955252159386873, 'z': -0.6415191888809204, 'w': 0.7670778036117554}","[0.0, 0.0, 0.0, 0.0, 0.0, 0.0, 0.0, 0.0, 0.0]","{'x': 0.0, 'y': 0.0, 'z': 0.0}","[0.0, 0.0, 0.0, 0.0, 0.0, 0.0, 0.0, 0.0, 0.0]","{'x': 0.041299980133771896, 'y': -0.12509703636169434, 'z': 11.024700164794922}","[0.0, 0.0, 0.0, 0.0, 0.0, 0.0, 0.0, 0.0, 0.0]"
2023/06/17 11:24:41.837052510,"{'stamp': {'secs': 1687011881, 'nsecs': 832664089}, 'frame_id': 'imu_link'}","{'x': -0.005218253005295992, 'y': 0.0019348111236467957, 'z': -0.6415212750434875, 'w': 0.7670794129371643}","[0.0, 0.0, 0.0, 0.0, 0.0, 0.0, 0.0, 0.0, 0.0]","{'x': 0.0, 'y': 0.0, 'z': 0.0}","[0.0, 0.0, 0.0, 0.0, 0.0, 0.0, 0.0, 0.0, 0.0]","{'x': 0.03651157394051552, 'y': -0.11611878126859665, 'z': 11.024700164794922}","[0.0, 0.0, 0.0, 0.0, 0.0, 0.0, 0.0, 0.0, 0.0]"
2023/06/17 11:24:41.889891692,"{'stamp': {'secs': 1687011881, 'nsecs': 882577865}, 'frame_id': 'imu_link'}","{'x': -0.005080126225948334, 'y': 0.0020032282918691635, 'z': -0.6415213346481323, 'w': 0.7670801281929016}","[0.0, 0.0, 0.0, 0.0, 0.0, 0.0, 0.0, 0.0, 0.0]","{'x': 0.0, 'y': 0.0, 'z': 0.0}","[0.0, 0.0, 0.0, 0.0, 0.0, 0.0, 0.0, 0.0, 0.0]","{'x': 0.0694318488240242, 'y': -0.13287819921970367, 'z': 11.012130737304688}","[0.0, 0.0, 0.0, 0.0, 0.0, 0.0, 0.0, 0.0, 0.0]"
2023/06/17 11:24:41.939447188,"{'stamp': {'secs': 1687011881, 'nsecs': 932617422}, 'frame_id': 'imu_link'}","{'x': -0.0063855922780931, 'y': 0.0019870391115546227, 'z': -0.6415195465087891, 'w': 0.7670719027519226}","[0.0, 0.0, 0.0, 0.0, 0.0, 0.0, 0.0, 0.0, 0.0]","{'x': 0.0, 'y': 0.0, 'z': 0.0}","[0.0, 0.0, 0.0, 0.0, 0.0, 0.0, 0.0, 0.0, 0.0]","{'x': 0.05506663769483566, 'y': -0.1364694982767105, 'z': 10.994772911071777}","[0.0, 0.0, 0.0, 0.0, 0.0, 0.0, 0.0, 0.0, 0.0]"
2023/06/17 11:24:41.994591050,"{'stamp': {'secs': 1687011881, 'nsecs': 982607864}, 'frame_id': 'imu_link'}","{'x': -0.005020866636186838, 'y': 0.0009014910901896656, 'z': -0.6415309906005859, 'w': 0.7670746445655823}","[0.0, 0.0, 0.0, 0.0, 0.0, 0.0, 0.0, 0.0, 0.0]","{'x': 0.0, 'y': 0.0, 'z': 0.0}","[0.0, 0.0, 0.0, 0.0, 0.0, 0.0, 0.0, 0.0, 0.0]","{'x': 0.04728548228740692, 'y': -0.08858545869588852, 'z': 11.029488563537598}","[0.0, 0.0, 0.0, 0.0, 0.0, 0.0, 0.0, 0.0, 0.0]"
2023/06/17 11:24:42.35103246,"{'stamp': {'secs': 1687011882, 'nsecs': 32600286}, 'frame_id': 'imu_link'}","{'x': -0.005538247991353273, 'y': 0.002664003986865282, 'z': -0.6415197849273682, 'w': 0.767076313495636}","[0.0, 0.0, 0.0, 0.0, 0.0, 0.0, 0.0, 0.0, 0.0]","{'x': 0.0, 'y': 0.0, 'z': 0.0}","[0.0, 0.0, 0.0, 0.0, 0.0, 0.0, 0.0, 0.0, 0.0]","{'x': 0.03411737456917763, 'y': -0.12868833541870117, 'z': 11.009736061096191}","[0.0, 0.0, 0.0, 0.0, 0.0, 0.0, 0.0, 0.0, 0.0]"
2023/06/17 11:24:42.86689256,"{'stamp': {'secs': 1687011882, 'nsecs': 82592396}, 'frame_id': 'imu_link'}","{'x': -0.005148402415215969, 'y': 0.0011610096553340554, 'z': -0.6415285468101501, 'w': 0.76707524061203}","[0.0, 0.0, 0.0, 0.0, 0.0, 0.0, 0.0, 0.0, 0.0]","{'x': 0.0, 'y': 0.0, 'z': 0.0}","[0.0, 0.0, 0.0, 0.0, 0.0, 0.0, 0.0, 0.0, 0.0]","{'x': 0.05446808785200119, 'y': -0.10594342648983002, 'z': 11.054627418518066}","[0.0, 0.0, 0.0, 0.0, 0.0, 0.0, 0.0, 0.0, 0.0]"
2023/06/17 11:24:42.139778542,"{'stamp': {'secs': 1687011882, 'nsecs': 132627370}, 'frame_id': 'imu_link'}","{'x': -0.005785252898931503, 'y': 0.0022359462454915047, 'z': -0.641520619392395, 'w': 0.7670751214027405}","[0.0, 0.0, 0.0, 0.0, 0.0, 0.0, 0.0, 0.0, 0.0]","{'x': 0.0, 'y': 0.0, 'z': 0.0}","[0.0, 0.0, 0.0, 0.0, 0.0, 0.0, 0.0, 0.0, 0.0]","{'x': 0.04249707981944084, 'y': -0.13168108463287354, 'z': 11.026495933532715}","[0.0, 0.0, 0.0, 0.0, 0.0, 0.0, 0.0, 0.0, 0.0]"
2023/06/17 11:24:42.187974877,"{'stamp': {'secs': 1687011882, 'nsecs': 182674688}, 'frame_id': 'imu_link'}","{'x': -0.0057642110623419285, 'y': 0.0015808228636160493, 'z': -0.6415237188339233, 'w': 0.767074465751648}","[0.0, 0.0, 0.0, 0.0, 0.0, 0.0, 0.0, 0.0, 0.0]","{'x': 0.0, 'y': 0.0, 'z': 0.0}","[0.0, 0.0, 0.0, 0.0, 0.0, 0.0, 0.0, 0.0, 0.0]","{'x': 0.052073884755373, 'y': -0.1215057373046875, 'z': 11.029488563537598}","[0.0, 0.0, 0.0, 0.0, 0.0, 0.0, 0.0, 0.0, 0.0]"
2023/06/17 11:24:42.244324307,"{'stamp': {'secs': 1687011882, 'nsecs': 232620652}, 'frame_id': 'imu_link'}","{'x': -0.005399106536060572, 'y': 0.0007745158509351313, 'z': -0.6415280699729919, 'w': 0.7670745253562927}","[0.0, 0.0, 0.0, 0.0, 0.0, 0.0, 0.0, 0.0, 0.0]","{'x': 0.0, 'y': 0.0, 'z': 0.0}","[0.0, 0.0, 0.0, 0.0, 0.0, 0.0, 0.0, 0.0, 0.0]","{'x': 0.06584054231643677, 'y': -0.10654197633266449, 'z': 11.005546569824219}","[0.0, 0.0, 0.0, 0.0, 0.0, 0.0, 0.0, 0.0, 0.0]"
2023/06/17 11:24:42.286085926,"{'stamp': {'secs': 1687011882, 'nsecs': 282601668}, 'frame_id': 'imu_link'}","{'x': -0.004746620077639818, 'y': 0.0015998651506379247, 'z': -0.6415239572525024, 'w': 0.7670809626579285}","[0.0, 0.0, 0.0, 0.0, 0.0, 0.0, 0.0, 0.0, 0.0]","{'x': 0.0, 'y': 0.0, 'z': 0.0}","[0.0, 0.0, 0.0, 0.0, 0.0, 0.0, 0.0, 0.0, 0.0]","{'x': 0.047884032130241394, 'y': -0.0975637212395668, 'z': 11.028291702270508}","[0.0, 0.0, 0.0, 0.0, 0.0, 0.0, 0.0, 0.0, 0.0]"
2023/06/17 11:24:42.336525482,"{'stamp': {'secs': 1687011882, 'nsecs': 332645288}, 'frame_id': 'imu_link'}","{'x': -0.004339265171438456, 'y': 0.001111410791054368, 'z': -0.6415265798568726, 'w': 0.7670822739601135}","[0.0, 0.0, 0.0, 0.0, 0.0, 0.0, 0.0, 0.0, 0.0]","{'x': 0.0, 'y': 0.0, 'z': 0.0}","[0.0, 0.0, 0.0, 0.0, 0.0, 0.0, 0.0, 0.0, 0.0]","{'x': 0.040701426565647125, 'y': -0.09038111567497253, 'z': 11.018714904785156}","[0.0, 0.0, 0.0, 0.0, 0.0, 0.0, 0.0, 0.0, 0.0]"
2023/06/17 11:24:42.392143561,"{'stamp': {'secs': 1687011882, 'nsecs': 382605210}, 'frame_id': 'imu_link'}","{'x': -0.006068815942853689, 'y': 0.001698397914879024, 'z': -0.6415208578109741, 'w': 0.7670739889144897}","[0.0, 0.0, 0.0, 0.0, 0.0, 0.0, 0.0, 0.0, 0.0]","{'x': 0.0, 'y': 0.0, 'z': 0.0}","[0.0, 0.0, 0.0, 0.0, 0.0, 0.0, 0.0, 0.0, 0.0]","{'x': 0.055665187537670135, 'y': -0.12629413604736328, 'z': 11.023503303527832}","[0.0, 0.0, 0.0, 0.0, 0.0, 0.0, 0.0, 0.0, 0.0]"
2023/06/17 11:24:42.436148452,"{'stamp': {'secs': 1687011882, 'nsecs': 432630340}, 'frame_id': 'imu_link'}","{'x': -0.005632865242660046, 'y': 0.0011072626803070307, 'z': -0.6415250301361084, 'w': 0.7670750021934509}","[0.0, 0.0, 0.0, 0.0, 0.0, 0.0, 0.0, 0.0, 0.0]","{'x': 0.0, 'y': 0.0, 'z': 0.0}","[0.0, 0.0, 0.0, 0.0, 0.0, 0.0, 0.0, 0.0, 0.0]","{'x': 0.052073884755373, 'y': -0.11372458189725876, 'z': 11.030685424804688}","[0.0, 0.0, 0.0, 0.0, 0.0, 0.0, 0.0, 0.0, 0.0]"
2023/06/17 11:24:42.495489539,"{'stamp': {'secs': 1687011882, 'nsecs': 482682606}, 'frame_id': 'imu_link'}","{'x': -0.005695309955626726, 'y': 0.002042713575065136, 'z': -0.6415207982063293, 'w': 0.7670762538909912}","[0.0, 0.0, 0.0, 0.0, 0.0, 0.0, 0.0, 0.0, 0.0]","{'x': 0.0, 'y': 0.0, 'z': 0.0}","[0.0, 0.0, 0.0, 0.0, 0.0, 0.0, 0.0, 0.0, 0.0]","{'x': 0.05985504016280174, 'y': -0.11851298063993454, 'z': 11.039664268493652}","[0.0, 0.0, 0.0, 0.0, 0.0, 0.0, 0.0, 0.0, 0.0]"
2023/06/17 11:24:42.536171838,"{'stamp': {'secs': 1687011882, 'nsecs': 532676903}, 'frame_id': 'imu_link'}","{'x': -0.0054048760794103146, 'y': 0.001988926436752081, 'z': -0.6415217518806458, 'w': 0.767077624797821}","[0.0, 0.0, 0.0, 0.0, 0.0, 0.0, 0.0, 0.0, 0.0]","{'x': 0.0, 'y': 0.0, 'z': 0.0}","[0.0, 0.0, 0.0, 0.0, 0.0, 0.0, 0.0, 0.0, 0.0]","{'x': 0.03950432687997818, 'y': -0.11671733111143112, 'z': 11.037269592285156}","[0.0, 0.0, 0.0, 0.0, 0.0, 0.0, 0.0, 0.0, 0.0]"
2023/06/17 11:24:42.586593999,"{'stamp': {'secs': 1687011882, 'nsecs': 582630732}, 'frame_id': 'imu_link'}","{'x': -0.004965548869222403, 'y': 0.0019438035087659955, 'z': -0.6415230631828308, 'w': 0.7670796513557434}","[0.0, 0.0, 0.0, 0.0, 0.0, 0.0, 0.0, 0.0, 0.0]","{'x': 0.0, 'y': 0.0, 'z': 0.0}","[0.0, 0.0, 0.0, 0.0, 0.0, 0.0, 0.0, 0.0, 0.0]","{'x': 0.06165069341659546, 'y': -0.10175357013940811, 'z': 11.034276962280273}","[0.0, 0.0, 0.0, 0.0, 0.0, 0.0, 0.0, 0.0, 0.0]"
2023/06/17 11:24:42.639481671,"{'stamp': {'secs': 1687011882, 'nsecs': 632639508}, 'frame_id': 'imu_link'}","{'x': -0.005545663181692362, 'y': 0.0014705660287290812, 'z': -0.6415239572525024, 'w': 0.7670758366584778}","[0.0, 0.0, 0.0, 0.0, 0.0, 0.0, 0.0, 0.0, 0.0]","{'x': 0.0, 'y': 0.0, 'z': 0.0}","[0.0, 0.0, 0.0, 0.0, 0.0, 0.0, 0.0, 0.0, 0.0]","{'x': 0.040701426565647125, 'y': -0.11611878126859665, 'z': 11.040262222290039}","[0.0, 0.0, 0.0, 0.0, 0.0, 0.0, 0.0, 0.0, 0.0]"
2023/06/17 11:24:42.687449256,"{'stamp': {'secs': 1687011882, 'nsecs': 682641774}, 'frame_id': 'imu_link'}","{'x': -0.005783104803413153, 'y': 0.0011195216793566942, 'z': -0.6415250897407532, 'w': 0.7670738101005554}","[0.0, 0.0, 0.0, 0.0, 0.0, 0.0, 0.0, 0.0, 0.0]","{'x': 0.0, 'y': 0.0, 'z': 0.0}","[0.0, 0.0, 0.0, 0.0, 0.0, 0.0, 0.0, 0.0, 0.0]","{'x': 0.05027823522686958, 'y': -0.10654197633266449, 'z': 10.993575096130371}","[0.0, 0.0, 0.0, 0.0, 0.0, 0.0, 0.0, 0.0, 0.0]"
2023/06/17 11:24:42.747694454,"{'stamp': {'secs': 1687011882, 'nsecs': 732653571}, 'frame_id': 'imu_link'}","{'x': -0.005871834699064493, 'y': 0.0006853998056612909, 'z': -0.6415283679962158, 'w': 0.7670709490776062}","[0.0, 0.0, 0.0, 0.0, 0.0, 0.0, 0.0, 0.0, 0.0]","{'x': 0.0, 'y': 0.0, 'z': 0.0}","[0.0, 0.0, 0.0, 0.0, 0.0, 0.0, 0.0, 0.0, 0.0]","{'x': 0.07362169772386551, 'y': -0.10654197633266449, 'z': 11.03367805480957}","[0.0, 0.0, 0.0, 0.0, 0.0, 0.0, 0.0, 0.0, 0.0]"
2023/06/17 11:24:42.790784349,"{'stamp': {'secs': 1687011882, 'nsecs': 782624379}, 'frame_id': 'imu_link'}","{'x': -0.005611289292573929, 'y': 0.0020340620540082455, 'z': -0.6415231227874756, 'w': 0.7670748233795166}","[0.0, 0.0, 0.0, 0.0, 0.0, 0.0, 0.0, 0.0, 0.0]","{'x': 0.0, 'y': 0.0, 'z': 0.0}","[0.0, 0.0, 0.0, 0.0, 0.0, 0.0, 0.0, 0.0, 0.0]","{'x': 0.038307227194309235, 'y': -0.12689268589019775, 'z': 10.976217269897461}","[0.0, 0.0, 0.0, 0.0, 0.0, 0.0, 0.0, 0.0, 0.0]"
2023/06/17 11:24:42.836382777,"{'stamp': {'secs': 1687011882, 'nsecs': 832633624}, 'frame_id': 'imu_link'}","{'x': -0.005938726477324963, 'y': 0.0009828658076003194, 'z': -0.6415279507637024, 'w': 0.7670704126358032}","[0.0, 0.0, 0.0, 0.0, 0.0, 0.0, 0.0, 0.0, 0.0]","{'x': 0.0, 'y': 0.0, 'z': 0.0}","[0.0, 0.0, 0.0, 0.0, 0.0, 0.0, 0.0, 0.0, 0.0]","{'x': 0.07302314788103104, 'y': -0.11971008032560349, 'z': 11.018714904785156}","[0.0, 0.0, 0.0, 0.0, 0.0, 0.0, 0.0, 0.0, 0.0]"
2023/06/17 11:24:42.886466709,"{'stamp': {'secs': 1687011882, 'nsecs': 882609171}, 'frame_id': 'imu_link'}","{'x': -0.005212482996284962, 'y': 0.0015228119445964694, 'z': -0.6415256857872009, 'w': 0.7670766711235046}","[0.0, 0.0, 0.0, 0.0, 0.0, 0.0, 0.0, 0.0, 0.0]","{'x': 0.0, 'y': 0.0, 'z': 0.0}","[0.0, 0.0, 0.0, 0.0, 0.0, 0.0, 0.0, 0.0, 0.0]","{'x': 0.04908113554120064, 'y': -0.10773907601833344, 'z': 11.029488563537598}","[0.0, 0.0, 0.0, 0.0, 0.0, 0.0, 0.0, 0.0, 0.0]"
2023/06/17 11:24:42.939380527,"{'stamp': {'secs': 1687011882, 'nsecs': 932593989}, 'frame_id': 'imu_link'}","{'x': -0.005619277246296406, 'y': 0.0023108813911676407, 'z': -0.6415199041366577, 'w': 0.7670767903327942}","[0.0, 0.0, 0.0, 0.0, 0.0, 0.0, 0.0, 0.0, 0.0]","{'x': 0.0, 'y': 0.0, 'z': 0.0}","[0.0, 0.0, 0.0, 0.0, 0.0, 0.0, 0.0, 0.0, 0.0]","{'x': 0.05147533491253853, 'y': -0.10953472554683685, 'z': 11.04983901977539}","[0.0, 0.0, 0.0, 0.0, 0.0, 0.0, 0.0, 0.0, 0.0]"
2023/06/17 11:24:42.987366654,"{'stamp': {'secs': 1687011882, 'nsecs': 982597453}, 'frame_id': 'imu_link'}","{'x': -0.004663009662181139, 'y': 0.001631345134228468, 'z': -0.6415250301361084, 'w': 0.767080545425415}","[0.0, 0.0, 0.0, 0.0, 0.0, 0.0, 0.0, 0.0, 0.0]","{'x': 0.0, 'y': 0.0, 'z': 0.0}","[0.0, 0.0, 0.0, 0.0, 0.0, 0.0, 0.0, 0.0, 0.0]","{'x': 0.04668693244457245, 'y': -0.104147769510746, 'z': 11.041459083557129}","[0.0, 0.0, 0.0, 0.0, 0.0, 0.0, 0.0, 0.0, 0.0]"
2023/06/17 11:24:43.45396964,"{'stamp': {'secs': 1687011883, 'nsecs': 32629979}, 'frame_id': 'imu_link'}","{'x': -0.005396209191530943, 'y': 0.0013655812945216894, 'z': -0.6415244340896606, 'w': 0.767076849937439}","[0.0, 0.0, 0.0, 0.0, 0.0, 0.0, 0.0, 0.0, 0.0]","{'x': 0.0, 'y': 0.0, 'z': 0.0}","[0.0, 0.0, 0.0, 0.0, 0.0, 0.0, 0.0, 0.0, 0.0]","{'x': 0.052073884755373, 'y': -0.10893617570400238, 'z': 11.01632022857666}","[0.0, 0.0, 0.0, 0.0, 0.0, 0.0, 0.0, 0.0, 0.0]"
2023/06/17 11:24:43.88345558,"{'stamp': {'secs': 1687011883, 'nsecs': 82586569}, 'frame_id': 'imu_link'}","{'x': -0.005071720108389854, 'y': 0.0014396973419934511, 'z': -0.6415254473686218, 'w': 0.7670780420303345}","[0.0, 0.0, 0.0, 0.0, 0.0, 0.0, 0.0, 0.0, 0.0]","{'x': 0.0, 'y': 0.0, 'z': 0.0}","[0.0, 0.0, 0.0, 0.0, 0.0, 0.0, 0.0, 0.0, 0.0]","{'x': 0.052073884755373, 'y': -0.10654197633266449, 'z': 10.99776554107666}","[0.0, 0.0, 0.0, 0.0, 0.0, 0.0, 0.0, 0.0, 0.0]"
2023/06/17 11:24:43.136489550,"{'stamp': {'secs': 1687011883, 'nsecs': 132671856}, 'frame_id': 'imu_link'}","{'x': -0.0049837613478302956, 'y': 0.001501743565313518, 'z': -0.6415256261825562, 'w': 0.7670782804489136}","[0.0, 0.0, 0.0, 0.0, 0.0, 0.0, 0.0, 0.0, 0.0]","{'x': 0.0, 'y': 0.0, 'z': 0.0}","[0.0, 0.0, 0.0, 0.0, 0.0, 0.0, 0.0, 0.0, 0.0]","{'x': 0.04848258197307587, 'y': -0.12988543510437012, 'z': 10.985196113586426}","[0.0, 0.0, 0.0, 0.0, 0.0, 0.0, 0.0, 0.0, 0.0]"
2023/06/17 11:24:43.193344760,"{'stamp': {'secs': 1687011883, 'nsecs': 182634226}, 'frame_id': 'imu_link'}","{'x': -0.005932087544351816, 'y': 0.0023450700100511312, 'z': -0.6415195465087891, 'w': 0.7670745849609375}","[0.0, 0.0, 0.0, 0.0, 0.0, 0.0, 0.0, 0.0, 0.0]","{'x': 0.0, 'y': 0.0, 'z': 0.0}","[0.0, 0.0, 0.0, 0.0, 0.0, 0.0, 0.0, 0.0, 0.0]","{'x': 0.05386953800916672, 'y': -0.14065934717655182, 'z': 11.01392650604248}","[0.0, 0.0, 0.0, 0.0, 0.0, 0.0, 0.0, 0.0, 0.0]"
2023/06/17 11:24:43.235906012,"{'stamp': {'secs': 1687011883, 'nsecs': 232600659}, 'frame_id': 'imu_link'}","{'x': -0.005544715095311403, 'y': 0.0017464965349063277, 'z': -0.6415228843688965, 'w': 0.7670761942863464}","[0.0, 0.0, 0.0, 0.0, 0.0, 0.0, 0.0, 0.0, 0.0]","{'x': 0.0, 'y': 0.0, 'z': 0.0}","[0.0, 0.0, 0.0, 0.0, 0.0, 0.0, 0.0, 0.0, 0.0]","{'x': 0.04908113554120064, 'y': -0.11611878126859665, 'z': 11.011531829833984}","[0.0, 0.0, 0.0, 0.0, 0.0, 0.0, 0.0, 0.0, 0.0]"
2023/06/17 11:24:43.297731256,"{'stamp': {'secs': 1687011883, 'nsecs': 282631519}, 'frame_id': 'imu_link'}","{'x': -0.005195224657654762, 'y': 0.002574487589299679, 'z': -0.64151930809021, 'w': 0.76707923412323}","[0.0, 0.0, 0.0, 0.0, 0.0, 0.0, 0.0, 0.0, 0.0]","{'x': 0.0, 'y': 0.0, 'z': 0.0}","[0.0, 0.0, 0.0, 0.0, 0.0, 0.0, 0.0, 0.0, 0.0]","{'x': 0.020949264988303185, 'y': -0.11252747476100922, 'z': 11.003750801086426}","[0.0, 0.0, 0.0, 0.0, 0.0, 0.0, 0.0, 0.0, 0.0]"
2023/06/17 11:24:43.340499226,"{'stamp': {'secs': 1687011883, 'nsecs': 332594046}, 'frame_id': 'imu_link'}","{'x': -0.0058231959119439125, 'y': 0.0021101313177496195, 'z': -0.6415202617645264, 'w': 0.7670753598213196}","[0.0, 0.0, 0.0, 0.0, 0.0, 0.0, 0.0, 0.0, 0.0]","{'x': 0.0, 'y': 0.0, 'z': 0.0}","[0.0, 0.0, 0.0, 0.0, 0.0, 0.0, 0.0, 0.0, 0.0]","{'x': 0.041299980133771896, 'y': -0.12449848651885986, 'z': 11.028291702270508}","[0.0, 0.0, 0.0, 0.0, 0.0, 0.0, 0.0, 0.0, 0.0]"
2023/06/17 11:24:43.386023123,"{'stamp': {'secs': 1687011883, 'nsecs': 382595271}, 'frame_id': 'imu_link'}","{'x': -0.005394314415752888, 'y': 0.0006527332589030266, 'z': -0.6415292024612427, 'w': 0.7670737504959106}","[0.0, 0.0, 0.0, 0.0, 0.0, 0.0, 0.0, 0.0, 0.0]","{'x': 0.0, 'y': 0.0, 'z': 0.0}","[0.0, 0.0, 0.0, 0.0, 0.0, 0.0, 0.0, 0.0, 0.0]","{'x': 0.0628477931022644, 'y': -0.0975637212395668, 'z': 11.030685424804688}","[0.0, 0.0, 0.0, 0.0, 0.0, 0.0, 0.0, 0.0, 0.0]"
2023/06/17 11:24:43.436551638,"{'stamp': {'secs': 1687011883, 'nsecs': 432719776}, 'frame_id': 'imu_link'}","{'x': -0.005985352210700512, 'y': 0.0013764144387096167, 'z': -0.6415242552757263, 'w': 0.7670725584030151}","[0.0, 0.0, 0.0, 0.0, 0.0, 0.0, 0.0, 0.0, 0.0]","{'x': 0.0, 'y': 0.0, 'z': 0.0}","[0.0, 0.0, 0.0, 0.0, 0.0, 0.0, 0.0, 0.0, 0.0]","{'x': 0.05506663769483566, 'y': -0.0933738648891449, 'z': 11.019911766052246}","[0.0, 0.0, 0.0, 0.0, 0.0, 0.0, 0.0, 0.0, 0.0]"
2023/06/17 11:24:43.489586497,"{'stamp': {'secs': 1687011883, 'nsecs': 482579543}, 'frame_id': 'imu_link'}","{'x': -0.005088277161121368, 'y': 0.0017096917144954205, 'z': -0.6415250301361084, 'w': 0.7670778036117554}","[0.0, 0.0, 0.0, 0.0, 0.0, 0.0, 0.0, 0.0, 0.0]","{'x': 0.0, 'y': 0.0, 'z': 0.0}","[0.0, 0.0, 0.0, 0.0, 0.0, 0.0, 0.0, 0.0, 0.0]","{'x': 0.04249707981944084, 'y': -0.10534487664699554, 'z': 11.025897026062012}","[0.0, 0.0, 0.0, 0.0, 0.0, 0.0, 0.0, 0.0, 0.0]"
2023/06/17 11:24:43.537554552,"{'stamp': {'secs': 1687011883, 'nsecs': 532618737}, 'frame_id': 'imu_link'}","{'x': -0.004958404693752527, 'y': 0.0012361820554360747, 'z': -0.6415282487869263, 'w': 0.7670767307281494}","[0.0, 0.0, 0.0, 0.0, 0.0, 0.0, 0.0, 0.0, 0.0]","{'x': 0.0, 'y': 0.0, 'z': 0.0}","[0.0, 0.0, 0.0, 0.0, 0.0, 0.0, 0.0, 0.0, 0.0]","{'x': 0.0628477931022644, 'y': -0.10295066982507706, 'z': 11.012130737304688}","[0.0, 0.0, 0.0, 0.0, 0.0, 0.0, 0.0, 0.0, 0.0]"
2023/06/17 11:24:43.585761200,"{'stamp': {'secs': 1687011883, 'nsecs': 582606316}, 'frame_id': 'imu_link'}","{'x': -0.0049675884656608105, 'y': 0.0011294392170384526, 'z': -0.6415278315544128, 'w': 0.7670772075653076}","[0.0, 0.0, 0.0, 0.0, 0.0, 0.0, 0.0, 0.0, 0.0]","{'x': 0.0, 'y': 0.0, 'z': 0.0}","[0.0, 0.0, 0.0, 0.0, 0.0, 0.0, 0.0, 0.0, 0.0]","{'x': 0.06165069341659546, 'y': -0.10115502029657364, 'z': 10.990582466125488}","[0.0, 0.0, 0.0, 0.0, 0.0, 0.0, 0.0, 0.0, 0.0]"
2023/06/17 11:24:43.640987770,"{'stamp': {'secs': 1687011883, 'nsecs': 632629936}, 'frame_id': 'imu_link'}","{'x': -0.005078344605863094, 'y': 0.0009464540053158998, 'z': -0.6415293216705322, 'w': 0.7670755386352539}","[0.0, 0.0, 0.0, 0.0, 0.0, 0.0, 0.0, 0.0, 0.0]","{'x': 0.0, 'y': 0.0, 'z': 0.0}","[0.0, 0.0, 0.0, 0.0, 0.0, 0.0, 0.0, 0.0, 0.0]","{'x': 0.058059390634298325, 'y': -0.10594342648983002, 'z': 11.05103588104248}","[0.0, 0.0, 0.0, 0.0, 0.0, 0.0, 0.0, 0.0, 0.0]"
2023/06/17 11:24:43.686483126,"{'stamp': {'secs': 1687011883, 'nsecs': 682697983}, 'frame_id': 'imu_link'}","{'x': -0.004960635211318731, 'y': 0.0015503013273701072, 'z': -0.6415264010429382, 'w': 0.7670778036117554}","[0.0, 0.0, 0.0, 0.0, 0.0, 0.0, 0.0, 0.0, 0.0]","{'x': 0.0, 'y': 0.0, 'z': 0.0}","[0.0, 0.0, 0.0, 0.0, 0.0, 0.0, 0.0, 0.0, 0.0]","{'x': 0.030526071786880493, 'y': -0.09636661410331726, 'z': 10.991780281066895}","[0.0, 0.0, 0.0, 0.0, 0.0, 0.0, 0.0, 0.0, 0.0]"
2023/06/17 11:24:43.746652595,"{'stamp': {'secs': 1687011883, 'nsecs': 732640406}, 'frame_id': 'imu_link'}","{'x': -0.006041225977241993, 'y': 0.0008349531562998891, 'z': -0.6415278315544128, 'w': 0.7670698761940002}","[0.0, 0.0, 0.0, 0.0, 0.0, 0.0, 0.0, 0.0, 0.0]","{'x': 0.0, 'y': 0.0, 'z': 0.0}","[0.0, 0.0, 0.0, 0.0, 0.0, 0.0, 0.0, 0.0, 0.0]","{'x': 0.0628477931022644, 'y': -0.10295066982507706, 'z': 11.019911766052246}","[0.0, 0.0, 0.0, 0.0, 0.0, 0.0, 0.0, 0.0, 0.0]"
2023/06/17 11:24:43.789689626,"{'stamp': {'secs': 1687011883, 'nsecs': 782575173}, 'frame_id': 'imu_link'}","{'x': -0.005490757059305906, 'y': 0.002249143086373806, 'z': -0.6415235996246338, 'w': 0.7670747637748718}","[0.0, 0.0, 0.0, 0.0, 0.0, 0.0, 0.0, 0.0, 0.0]","{'x': 0.0, 'y': 0.0, 'z': 0.0}","[0.0, 0.0, 0.0, 0.0, 0.0, 0.0, 0.0, 0.0, 0.0]","{'x': 0.05925649031996727, 'y': -0.1173158809542656, 'z': 11.014524459838867}","[0.0, 0.0, 0.0, 0.0, 0.0, 0.0, 0.0, 0.0, 0.0]"
2023/06/17 11:24:43.837850857,"{'stamp': {'secs': 1687011883, 'nsecs': 832659783}, 'frame_id': 'imu_link'}","{'x': -0.005016266833990812, 'y': 0.0019400889286771417, 'z': -0.6415275931358337, 'w': 0.7670755386352539}","[0.0, 0.0, 0.0, 0.0, 0.0, 0.0, 0.0, 0.0, 0.0]","{'x': 0.0, 'y': 0.0, 'z': 0.0}","[0.0, 0.0, 0.0, 0.0, 0.0, 0.0, 0.0, 0.0, 0.0]","{'x': 0.04249707981944084, 'y': -0.11851298063993454, 'z': 11.03248119354248}","[0.0, 0.0, 0.0, 0.0, 0.0, 0.0, 0.0, 0.0, 0.0]"
2023/06/17 11:24:43.895705179,"{'stamp': {'secs': 1687011883, 'nsecs': 882605330}, 'frame_id': 'imu_link'}","{'x': -0.0059554991312325, 'y': 0.0018475373508408666, 'z': -0.641525387763977, 'w': 0.7670708298683167}","[0.0, 0.0, 0.0, 0.0, 0.0, 0.0, 0.0, 0.0, 0.0]","{'x': 0.0, 'y': 0.0, 'z': 0.0}","[0.0, 0.0, 0.0, 0.0, 0.0, 0.0, 0.0, 0.0, 0.0]","{'x': 0.041299980133771896, 'y': -0.11192892491817474, 'z': 11.013327598571777}","[0.0, 0.0, 0.0, 0.0, 0.0, 0.0, 0.0, 0.0, 0.0]"
2023/06/17 11:24:43.938354243,"{'stamp': {'secs': 1687011883, 'nsecs': 932589263}, 'frame_id': 'imu_link'}","{'x': -0.005656232126057148, 'y': 0.0010318020358681679, 'z': -0.641531229019165, 'w': 0.7670697569847107}","[0.0, 0.0, 0.0, 0.0, 0.0, 0.0, 0.0, 0.0, 0.0]","{'x': 0.0, 'y': 0.0, 'z': 0.0}","[0.0, 0.0, 0.0, 0.0, 0.0, 0.0, 0.0, 0.0, 0.0]","{'x': 0.06404489278793335, 'y': -0.10235211998224258, 'z': 11.02051067352295}","[0.0, 0.0, 0.0, 0.0, 0.0, 0.0, 0.0, 0.0, 0.0]"
2023/06/17 11:24:43.986643286,"{'stamp': {'secs': 1687011883, 'nsecs': 982626946}, 'frame_id': 'imu_link'}","{'x': -0.006152878049761057, 'y': 0.002186671830713749, 'z': -0.6415237784385681, 'w': 0.7670696973800659}","[0.0, 0.0, 0.0, 0.0, 0.0, 0.0, 0.0, 0.0, 0.0]","{'x': 0.0, 'y': 0.0, 'z': 0.0}","[0.0, 0.0, 0.0, 0.0, 0.0, 0.0, 0.0, 0.0, 0.0]","{'x': 0.046088382601737976, 'y': -0.11911153048276901, 'z': 11.030685424804688}","[0.0, 0.0, 0.0, 0.0, 0.0, 0.0, 0.0, 0.0, 0.0]"
2023/06/17 11:24:44.44265890,"{'stamp': {'secs': 1687011884, 'nsecs': 32683484}, 'frame_id': 'imu_link'}","{'x': -0.004283060319721699, 'y': 0.0013911972055211663, 'z': -0.641532301902771, 'w': 0.7670772671699524}","[0.0, 0.0, 0.0, 0.0, 0.0, 0.0, 0.0, 0.0, 0.0]","{'x': 0.0, 'y': 0.0, 'z': 0.0}","[0.0, 0.0, 0.0, 0.0, 0.0, 0.0, 0.0, 0.0, 0.0]","{'x': 0.02693476900458336, 'y': -0.08499415963888168, 'z': 11.021108627319336}","[0.0, 0.0, 0.0, 0.0, 0.0, 0.0, 0.0, 0.0, 0.0]"
2023/06/17 11:24:44.88676770,"{'stamp': {'secs': 1687011884, 'nsecs': 82596115}, 'frame_id': 'imu_link'}","{'x': -0.006305780727416277, 'y': 0.001502584433183074, 'z': -0.6415262222290039, 'w': 0.7670682072639465}","[0.0, 0.0, 0.0, 0.0, 0.0, 0.0, 0.0, 0.0, 0.0]","{'x': 0.0, 'y': 0.0, 'z': 0.0}","[0.0, 0.0, 0.0, 0.0, 0.0, 0.0, 0.0, 0.0, 0.0]","{'x': 0.0586579404771328, 'y': -0.132279634475708, 'z': 11.007342338562012}","[0.0, 0.0, 0.0, 0.0, 0.0, 0.0, 0.0, 0.0, 0.0]"
2023/06/17 11:24:44.135418580,"{'stamp': {'secs': 1687011884, 'nsecs': 132616559}, 'frame_id': 'imu_link'}","{'x': -0.0056760311126708984, 'y': 0.0017457514768466353, 'z': -0.6415265202522278, 'w': 0.7670722007751465}","[0.0, 0.0, 0.0, 0.0, 0.0, 0.0, 0.0, 0.0, 0.0]","{'x': 0.0, 'y': 0.0, 'z': 0.0}","[0.0, 0.0, 0.0, 0.0, 0.0, 0.0, 0.0, 0.0, 0.0]","{'x': 0.05626373738050461, 'y': -0.09876082092523575, 'z': 11.021108627319336}","[0.0, 0.0, 0.0, 0.0, 0.0, 0.0, 0.0, 0.0, 0.0]"
2023/06/17 11:24:44.193436599,"{'stamp': {'secs': 1687011884, 'nsecs': 182658826}, 'frame_id': 'imu_link'}","{'x': -0.005404062103480101, 'y': 0.0015325400745496154, 'z': -0.6415272951126099, 'w': 0.7670740485191345}","[0.0, 0.0, 0.0, 0.0, 0.0, 0.0, 0.0, 0.0, 0.0]","{'x': 0.0, 'y': 0.0, 'z': 0.0}","[0.0, 0.0, 0.0, 0.0, 0.0, 0.0, 0.0, 0.0, 0.0]","{'x': 0.05267243832349777, 'y': -0.11911153048276901, 'z': 11.040262222290039}","[0.0, 0.0, 0.0, 0.0, 0.0, 0.0, 0.0, 0.0, 0.0]"
2023/06/17 11:24:44.236238111,"{'stamp': {'secs': 1687011884, 'nsecs': 232586770}, 'frame_id': 'imu_link'}","{'x': -0.00605361582711339, 'y': 0.0013819041196256876, 'z': -0.6415268182754517, 'w': 0.7670698761940002}","[0.0, 0.0, 0.0, 0.0, 0.0, 0.0, 0.0, 0.0, 0.0]","{'x': 0.0, 'y': 0.0, 'z': 0.0}","[0.0, 0.0, 0.0, 0.0, 0.0, 0.0, 0.0, 0.0, 0.0]","{'x': 0.0694318488240242, 'y': -0.12030863016843796, 'z': 11.024700164794922}","[0.0, 0.0, 0.0, 0.0, 0.0, 0.0, 0.0, 0.0, 0.0]"
2023/06/17 11:24:44.286843449,"{'stamp': {'secs': 1687011884, 'nsecs': 282656485}, 'frame_id': 'imu_link'}","{'x': -0.004990503657609224, 'y': 0.0006377118988893926, 'z': -0.641533613204956, 'w': 0.767072856426239}","[0.0, 0.0, 0.0, 0.0, 0.0, 0.0, 0.0, 0.0, 0.0]","{'x': 0.0, 'y': 0.0, 'z': 0.0}","[0.0, 0.0, 0.0, 0.0, 0.0, 0.0, 0.0, 0.0, 0.0]","{'x': 0.05925649031996727, 'y': -0.09397241473197937, 'z': 11.024700164794922}","[0.0, 0.0, 0.0, 0.0, 0.0, 0.0, 0.0, 0.0, 0.0]"
2023/06/17 11:24:44.344708447,"{'stamp': {'secs': 1687011884, 'nsecs': 332622918}, 'frame_id': 'imu_link'}","{'x': -0.005374890752136707, 'y': 0.0013613828923553228, 'z': -0.6415305137634277, 'w': 0.7670719027519226}","[0.0, 0.0, 0.0, 0.0, 0.0, 0.0, 0.0, 0.0, 0.0]","{'x': 0.0, 'y': 0.0, 'z': 0.0}","[0.0, 0.0, 0.0, 0.0, 0.0, 0.0, 0.0, 0.0, 0.0]","{'x': 0.05267243832349777, 'y': -0.10953472554683685, 'z': 11.015722274780273}","[0.0, 0.0, 0.0, 0.0, 0.0, 0.0, 0.0, 0.0, 0.0]"
2023/06/17 11:24:44.387558761,"{'stamp': {'secs': 1687011884, 'nsecs': 382584821}, 'frame_id': 'imu_link'}","{'x': -0.0053464132361114025, 'y': 0.0012204651720821857, 'z': -0.6415317058563232, 'w': 0.7670713067054749}","[0.0, 0.0, 0.0, 0.0, 0.0, 0.0, 0.0, 0.0, 0.0]","{'x': 0.0, 'y': 0.0, 'z': 0.0}","[0.0, 0.0, 0.0, 0.0, 0.0, 0.0, 0.0, 0.0, 0.0]","{'x': 0.04429272934794426, 'y': -0.11133037507534027, 'z': 11.007342338562012}","[0.0, 0.0, 0.0, 0.0, 0.0, 0.0, 0.0, 0.0, 0.0]"
2023/06/17 11:24:44.435510671,"{'stamp': {'secs': 1687011884, 'nsecs': 432668285}, 'frame_id': 'imu_link'}","{'x': -0.005421577952802181, 'y': 0.0013576889177784324, 'z': -0.6415311694145203, 'w': 0.7670710682868958}","[0.0, 0.0, 0.0, 0.0, 0.0, 0.0, 0.0, 0.0, 0.0]","{'x': 0.0, 'y': 0.0, 'z': 0.0}","[0.0, 0.0, 0.0, 0.0, 0.0, 0.0, 0.0, 0.0, 0.0]","{'x': 0.05985504016280174, 'y': -0.11372458189725876, 'z': 11.033080101013184}","[0.0, 0.0, 0.0, 0.0, 0.0, 0.0, 0.0, 0.0, 0.0]"
2023/06/17 11:24:44.495906389,"{'stamp': {'secs': 1687011884, 'nsecs': 482597635}, 'frame_id': 'imu_link'}","{'x': -0.0057279197499156, 'y': 0.0008816965855658054, 'z': -0.6415330171585083, 'w': 0.7670678496360779}","[0.0, 0.0, 0.0, 0.0, 0.0, 0.0, 0.0, 0.0, 0.0]","{'x': 0.0, 'y': 0.0, 'z': 0.0}","[0.0, 0.0, 0.0, 0.0, 0.0, 0.0, 0.0, 0.0, 0.0]","{'x': 0.0454898327589035, 'y': -0.1256955862045288, 'z': 11.01392650604248}","[0.0, 0.0, 0.0, 0.0, 0.0, 0.0, 0.0, 0.0, 0.0]"
2023/06/17 11:24:44.536272649,"{'stamp': {'secs': 1687011884, 'nsecs': 532588184}, 'frame_id': 'imu_link'}","{'x': -0.005330429412424564, 'y': 0.0017708814702928066, 'z': -0.6415295004844666, 'w': 0.7670721411705017}","[0.0, 0.0, 0.0, 0.0, 0.0, 0.0, 0.0, 0.0, 0.0]","{'x': 0.0, 'y': 0.0, 'z': 0.0}","[0.0, 0.0, 0.0, 0.0, 0.0, 0.0, 0.0, 0.0, 0.0]","{'x': 0.04489128291606903, 'y': -0.12210428714752197, 'z': 11.019312858581543}","[0.0, 0.0, 0.0, 0.0, 0.0, 0.0, 0.0, 0.0, 0.0]"
2023/06/17 11:24:44.586863716,"{'stamp': {'secs': 1687011884, 'nsecs': 582631127}, 'frame_id': 'imu_link'}","{'x': -0.005624210461974144, 'y': 0.0021433853544294834, 'z': -0.6415258049964905, 'w': 0.7670722603797913}","[0.0, 0.0, 0.0, 0.0, 0.0, 0.0, 0.0, 0.0, 0.0]","{'x': 0.0, 'y': 0.0, 'z': 0.0}","[0.0, 0.0, 0.0, 0.0, 0.0, 0.0, 0.0, 0.0, 0.0]","{'x': 0.047884032130241394, 'y': -0.1280897855758667, 'z': 11.012130737304688}","[0.0, 0.0, 0.0, 0.0, 0.0, 0.0, 0.0, 0.0, 0.0]"
2023/06/17 11:24:44.646513865,"{'stamp': {'secs': 1687011884, 'nsecs': 632596988}, 'frame_id': 'imu_link'}","{'x': -0.005440099630504847, 'y': 0.0022662910632789135, 'z': -0.6415252685546875, 'w': 0.7670736908912659}","[0.0, 0.0, 0.0, 0.0, 0.0, 0.0, 0.0, 0.0, 0.0]","{'x': 0.0, 'y': 0.0, 'z': 0.0}","[0.0, 0.0, 0.0, 0.0, 0.0, 0.0, 0.0, 0.0, 0.0]","{'x': 0.050876785069704056, 'y': -0.12449848651885986, 'z': 11.012728691101074}","[0.0, 0.0, 0.0, 0.0, 0.0, 0.0, 0.0, 0.0, 0.0]"
2023/06/17 11:24:44.687879392,"{'stamp': {'secs': 1687011884, 'nsecs': 682610817}, 'frame_id': 'imu_link'}","{'x': -0.004137520678341389, 'y': 0.0029200734570622444, 'z': -0.6415242552757263, 'w': 0.7670803666114807}","[0.0, 0.0, 0.0, 0.0, 0.0, 0.0, 0.0, 0.0, 0.0]","{'x': 0.0, 'y': 0.0, 'z': 0.0}","[0.0, 0.0, 0.0, 0.0, 0.0, 0.0, 0.0, 0.0, 0.0]","{'x': 0.03531447425484657, 'y': -0.1735796183347702, 'z': 10.932523727416992}","[0.0, 0.0, 0.0, 0.0, 0.0, 0.0, 0.0, 0.0, 0.0]"
2023/06/17 11:24:44.735614375,"{'stamp': {'secs': 1687011884, 'nsecs': 732663969}, 'frame_id': 'imu_link'}","{'x': -0.005144714843481779, 'y': 0.0015162167837843299, 'z': -0.6415311694145203, 'w': 0.7670725584030151}","[0.0, 0.0, 0.0, 0.0, 0.0, 0.0, 0.0, 0.0, 0.0]","{'x': 0.0, 'y': 0.0, 'z': 0.0}","[0.0, 0.0, 0.0, 0.0, 0.0, 0.0, 0.0, 0.0, 0.0]","{'x': 0.055665187537670135, 'y': -0.12749123573303223, 'z': 11.028291702270508}","[0.0, 0.0, 0.0, 0.0, 0.0, 0.0, 0.0, 0.0, 0.0]"
2023/06/17 11:24:44.793653384,"{'stamp': {'secs': 1687011884, 'nsecs': 782638320}, 'frame_id': 'imu_link'}","{'x': -0.005769373849034309, 'y': -0.0002564178721513599, 'z': -0.6415373682975769, 'w': 0.7670644521713257}","[0.0, 0.0, 0.0, 0.0, 0.0, 0.0, 0.0, 0.0, 0.0]","{'x': 0.0, 'y': 0.0, 'z': 0.0}","[0.0, 0.0, 0.0, 0.0, 0.0, 0.0, 0.0, 0.0, 0.0]","{'x': 0.090979665517807, 'y': -0.0975637212395668, 'z': 11.010933876037598}","[0.0, 0.0, 0.0, 0.0, 0.0, 0.0, 0.0, 0.0, 0.0]"
2023/06/17 11:24:44.836641926,"{'stamp': {'secs': 1687011884, 'nsecs': 832683034}, 'frame_id': 'imu_link'}","{'x': -0.005723736714571714, 'y': 0.0024945857003331184, 'z': -0.6415249109268188, 'w': 0.7670712471008301}","[0.0, 0.0, 0.0, 0.0, 0.0, 0.0, 0.0, 0.0, 0.0]","{'x': 0.0, 'y': 0.0, 'z': 0.0}","[0.0, 0.0, 0.0, 0.0, 0.0, 0.0, 0.0, 0.0, 0.0]","{'x': 0.002394201699644327, 'y': -0.12210428714752197, 'z': 11.022305488586426}","[0.0, 0.0, 0.0, 0.0, 0.0, 0.0, 0.0, 0.0, 0.0]"
2023/06/17 11:24:44.886006070,"{'stamp': {'secs': 1687011884, 'nsecs': 882614833}, 'frame_id': 'imu_link'}","{'x': -0.0044972556643188, 'y': 0.0018261142540723085, 'z': -0.6415308117866516, 'w': 0.7670763731002808}","[0.0, 0.0, 0.0, 0.0, 0.0, 0.0, 0.0, 0.0, 0.0]","{'x': 0.0, 'y': 0.0, 'z': 0.0}","[0.0, 0.0, 0.0, 0.0, 0.0, 0.0, 0.0, 0.0, 0.0]","{'x': 0.03950432687997818, 'y': -0.11013327538967133, 'z': 11.037269592285156}","[0.0, 0.0, 0.0, 0.0, 0.0, 0.0, 0.0, 0.0, 0.0]"
2023/06/17 11:24:44.945126637,"{'stamp': {'secs': 1687011884, 'nsecs': 932673089}, 'frame_id': 'imu_link'}","{'x': -0.004794571083039045, 'y': 0.0025336816906929016, 'z': -0.6415253281593323, 'w': 0.7670770883560181}","[0.0, 0.0, 0.0, 0.0, 0.0, 0.0, 0.0, 0.0, 0.0]","{'x': 0.0, 'y': 0.0, 'z': 0.0}","[0.0, 0.0, 0.0, 0.0, 0.0, 0.0, 0.0, 0.0, 0.0]","{'x': 0.04429272934794426, 'y': -0.11372458189725876, 'z': 11.022904396057129}","[0.0, 0.0, 0.0, 0.0, 0.0, 0.0, 0.0, 0.0, 0.0]"
